time_stamp,frame,x,y,z,yaw,pitch,roll,vx,vy,vz,speed_mps,speed_kmh,throttle,steer,brake,reverse,gear,collision_impulse,collision_with,lane_invasion,weather_cloud,weather_rain,weather_wetness,weather_fog
30.063421121565625,1330,263.2110290527344,330.9927673339844,-0.0012474822578951716,-0.2926635146141052,0.07481105625629425,0.011661714874207973,1.4970707893371582,-0.04031793028116226,0.00040609357529319823,1.4976136513469456,5.391409144849004,0.49837806820869446,-0.04495788738131523,0.0,False,1,0.0,,,60.0,40.0,80.0,5.0
30.0996747079771,1331,263.26568603515625,330.9913330078125,-0.0012520599411800504,-0.3471374809741974,0.07336989045143127,0.01066586747765541,1.5548810958862305,-0.04085921123623848,-5.9490201238077134e-05,1.5554178541556918,5.59950427496049,0.4983540177345276,-0.04035978764295578,0.0,False,1,0.0,,,60.0,40.0,80.0,5.0
30.138500085799024,1332,263.3263244628906,330.9895935058594,-0.0012808990431949496,-0.4065551161766052,0.07113641500473022,0.010025542229413986,1.6107532978057861,-0.043884385377168655,-0.0005086040473543108,1.6113510742076738,5.800863867147625,0.4983793795108795,-0.04114352911710739,0.0,False,1,0.0,,,60.0,40.0,80.0,5.0
30.17529662954621,1333,263.3858947753906,330.98779296875,-0.0012765121646225452,-0.46835318207740784,0.06929909437894821,0.010544671677052975,1.6653269529342651,-0.049257658421993256,0.0001634120853850618,1.6660552823319073,5.9977990163948665,0.4982668459415436,-0.04472625255584717,0.0,False,1,0.0,,,60.0,40.0,80.0,5.0
30.212839408544824,1334,263.44879150390625,330.98565673828125,-0.0012791823828592896,-0.541534423828125,0.0676325261592865,0.012435967102646828,1.7203900814056396,-0.05749867856502533,2.4700164431123994e-05,1.7213506705043355,6.196862413815608,0.49744096398353577,-0.051139574497938156,0.0,False,1,0.0,,,60.0,40.0,80.0,5.0
30.247970587341115,1335,263.5096435546875,330.984130859375,-0.0012611007550731301,-0.5830994248390198,0.06668996065855026,0.005825233645737171,1.7741672992706299,-0.04042626917362213,0.0003534889256116003,1.7746278522538068,6.388660268113704,0.4974161684513092,-0.018628139048814774,0.0,False,1,0.0,,,60.0,40.0,80.0,5.0
30.280786311952397,1336,263.5682373046875,330.9822692871094,-0.0012366867158561945,-0.6381224989891052,0.06584302335977554,0.009172852151095867,1.8160390853881836,-0.061866115778684616,0.0006659221253357828,1.8170926832144167,6.5415336595719005,0.49664318561553955,-0.055544279515743256,0.0,False,1,0.0,,,60.0,40.0,80.0,5.0
30.31150806020014,1337,263.6239318847656,330.9806213378906,-0.0012122344924136996,-0.6894224882125854,0.0628923773765564,0.006892787758260965,1.8314934968948364,-0.049427200108766556,0.0006971835973672569,1.8321604633174564,6.595777667942843,0.4973548948764801,-0.024101678282022476,0.0,False,1,0.0,,,60.0,40.0,80.0,5.0
30.341707453830168,1338,263.6793212890625,330.978515625,-0.0011990737402811646,-0.7638549208641052,0.05907430127263069,0.012553451582789421,1.8545687198638916,-0.0780990794301033,0.0005354404565878212,1.8562125119721355,6.682365043099688,0.4981248378753662,-0.08191407471895218,0.0,False,1,0.0,,,60.0,40.0,80.0,5.0
30.378596634371206,1339,263.7474670410156,330.97503662109375,-0.001241989084519446,-0.899383544921875,0.052749548107385635,0.022183198481798172,1.8681238889694214,-0.09528578817844391,-0.0006526851793751121,1.8705525044662514,6.733989016078505,0.4981248378753662,-0.08191407471895218,0.0,False,1,0.0,,,60.0,40.0,80.0,5.0
30.42531129787676,1340,263.83447265625,330.97039794921875,-0.0012752150651067495,-1.073333740234375,0.04460796341300011,0.022531548514962196,1.8632088899612427,-0.09408247470855713,-0.0003439044812694192,1.8655827502279776,6.71609790082072,0.4949381947517395,-0.06799060106277466,0.0,False,1,0.0,,,60.0,40.0,80.0,5.0
30.458855331642553,1341,263.8983154296875,330.96734619140625,-0.0012583923526108265,-1.1678160429000854,0.042381320148706436,0.016300391405820847,1.9079492092132568,-0.08382578939199448,0.0003933715634047985,1.9097898058807075,6.875243301170547,0.4934474229812622,-0.04277787730097771,0.0,False,1,0.0,,,60.0,40.0,80.0,5.0
30.490710974438116,1342,263.9603576660156,330.9642028808594,-0.0012383651919662952,-1.265899658203125,0.042490605264902115,0.017372095957398415,1.9540988206863403,-0.10027854889631271,0.0005134487291797996,1.9566701950012153,7.044012702004375,0.4911384582519531,-0.06731835752725601,0.0,False,1,0.0,,,60.0,40.0,80.0,5.0
30.523185555590317,1343,264.0248718261719,330.95989990234375,-0.0012258529895916581,-1.4080201387405396,0.04314630106091499,0.02770344726741314,1.9920388460159302,-0.1343507468700409,0.00040880677988752723,1.9965643125990207,7.187631525356474,0.4938184916973114,-0.10866811871528625,0.0,False,1,0.0,,,60.0,40.0,80.0,5.0
30.55677488516085,1344,264.09295654296875,330.9559020996094,-0.0012245940743014216,-1.524383544921875,0.04387713223695755,0.021028703078627586,2.031994342803955,-0.10573761910200119,-0.0001151275573647581,2.0347435874170956,7.325076914701544,0.49704480171203613,-0.035913728177547455,0.0,False,1,0.0,,,60.0,40.0,80.0,5.0
30.59501325036399,1345,264.1716003417969,330.9520263671875,-0.001279106130823493,-1.616790771484375,0.042668189853429794,0.010649507865309715,2.0529093742370605,-0.09798666089773178,-0.0011964797740802169,2.0552468747350368,7.398888749046132,0.49704480171203613,-0.035913728177547455,0.0,False,1,0.0,,,60.0,40.0,80.0,5.0
30.640916888369247,1346,264.2677001953125,330.9462890625,-0.0012968826340511441,-1.76922607421875,0.0416436605155468,0.0174518134444952,2.120509624481201,-0.13204079866409302,-0.00013147354184184223,2.1246166377289217,7.648619895824118,0.49538183212280273,-0.07408646494150162,0.0,False,1,0.0,,,60.0,40.0,80.0,5.0
30.672454938990995,1347,264.3353271484375,330.94232177734375,-0.0012601852649822831,-1.8635865449905396,0.042832113802433014,0.014515631832182407,2.1711299419403076,-0.12022500485181808,0.0008684014901518822,2.174456260931107,7.828042539351986,0.4972035884857178,-0.041085898876190186,0.0,False,1,0.0,,,60.0,40.0,80.0,5.0
30.70759614999406,1348,264.41217041015625,330.9381103515625,-0.0012679671635851264,-1.9506531953811646,0.04395909607410431,0.010379243642091751,2.2111570835113525,-0.11951076984405518,-0.000259561522398144,2.2143844606218077,7.971784058238508,0.49777162075042725,-0.03928124159574509,0.0,False,1,0.0,,,60.0,40.0,80.0,5.0
30.74696533824317,1349,264.4993591308594,330.93328857421875,-0.0013176345964893699,-2.048492431640625,0.042879924178123474,0.008497622795403004,2.238910436630249,-0.12246164679527283,-0.0009511851822026074,2.2422572784898955,8.072126202563624,0.49777162075042725,-0.03928124159574509,0.0,False,1,0.0,,,60.0,40.0,80.0,5.0
30.78361975471489,1350,264.5817565917969,330.92779541015625,-0.0013126373523846269,-2.18011474609375,0.04187588766217232,0.017994144931435585,2.272430658340454,-0.15568500757217407,0.0002966022293549031,2.277757451205299,8.199926824339077,0.49405696988105774,-0.076991967856884,0.0,False,1,0.0,,,60.0,40.0,80.0,5.0
30.821761128259823,1351,264.6688537597656,330.9220275878906,-0.001316718989983201,-2.30841064453125,0.04111773520708084,0.01747738942503929,2.308903932571411,-0.14821746945381165,-6.155967275844887e-05,2.3136563685829867,8.329162926898752,0.49680978059768677,-0.046898338943719864,0.0,False,1,0.0,,,60.0,40.0,80.0,5.0
30.85549292410724,1352,264.7474670410156,330.91717529296875,-0.0012825393350794911,-2.393951416015625,0.042094454169273376,0.012057513929903507,2.356442928314209,-0.1412692815065384,0.0007287883781827986,2.360673805385216,8.498425699386779,0.4980255365371704,-0.033202026039361954,0.0,False,1,0.0,,,60.0,40.0,80.0,5.0
30.885969017399475,1353,264.8200988769531,330.91278076171875,-0.0012437819968909025,-2.459198474884033,0.04447818920016289,0.008971162140369415,2.4075655937194824,-0.14339637756347656,0.0009024285827763379,2.4118323788226905,8.682596563761686,0.4980255365371704,-0.033202026039361954,0.0,False,1,0.0,,,60.0,40.0,80.0,5.0
30.919056341750547,1354,264.90045166015625,330.9078369140625,-0.001239509554579854,-2.530060052871704,0.04660237953066826,0.008266043849289417,2.450978994369507,-0.14893046021461487,8.354187229997478e-06,2.4554996055568994,8.839798580004839,0.4971506595611572,-0.035006847232580185,0.0,False,1,0.0,,,60.0,40.0,80.0,5.0
30.94963499600999,1355,264.97607421875,330.9031066894531,-0.0012215041788294911,-2.596466541290283,0.04833041504025459,0.00862471479922533,2.494800090789795,-0.15417492389678955,0.00040086268563754857,2.499559473358104,8.998414104089175,0.4977412223815918,-0.035006847232580185,0.0,False,1,0.0,,,60.0,40.0,80.0,5.0
30.981895540608093,1356,265.05718994140625,330.89764404296875,-0.0012218093033879995,-2.678589344024658,0.04940958693623543,0.012157084420323372,2.5340933799743652,-0.16829913854599,-2.8958320399397053e-05,2.5396759358831216,9.142833369179238,0.4977174401283264,-0.04523586109280586,0.0,False,1,0.0,,,60.0,40.0,80.0,5.0
31.01119875977747,1357,265.13140869140625,330.8924865722656,-0.0012731170281767845,-2.768280506134033,0.047681547701358795,0.014845827594399452,2.5317511558532715,-0.17395463585853577,-0.0013856792356818914,2.5377206407735264,9.135794306784696,0.49780914187431335,-0.04681971296668053,0.0,False,1,0.0,,,60.0,40.0,80.0,5.0
31.043522127671167,1358,265.2144775390625,330.886474609375,-0.0012515640119090676,-2.8641974925994873,0.04715562239289284,0.016691017895936966,2.580986499786377,-0.1824680119752884,0.0005783223896287382,2.587428496003423,9.314742585612322,0.49819880723953247,-0.045621879398822784,0.0,False,1,0.0,,,60.0,40.0,80.0,5.0
31.08302338863723,1359,265.31719970703125,330.87890625,-0.0013032531132921576,-2.982941150665283,0.045106567442417145,0.017492374405264854,2.6003410816192627,-0.18878358602523804,-0.0009253310854546726,2.6071850412556072,9.385866148520186,0.4985673427581787,-0.045407600700855255,0.0,False,1,0.0,,,60.0,40.0,80.0,5.0
31.112810832215473,1360,265.3954772949219,330.87298583984375,-0.0013251876225695014,-3.073212146759033,0.04375419020652771,0.018473012372851372,2.6441867351531982,-0.19846650958061218,-0.0005414295010268688,2.651624547127882,9.545848369660376,0.49867013096809387,-0.04731325805187225,0.0,False,1,0.0,,,60.0,40.0,80.0,5.0
31.14495932753198,1361,265.4813232421875,330.86627197265625,-0.0012754821218550205,-3.173859119415283,0.04417766258120537,0.019295357167720795,2.6939761638641357,-0.20698755979537964,0.001272072782739997,2.70191654933074,9.726899577590665,0.49875393509864807,-0.04652291163802147,0.0,False,1,0.0,,,60.0,40.0,80.0,5.0
31.181152165634558,1362,265.57965087890625,330.8586120605469,-0.0012752150651067495,-3.2773447036743164,0.045277319848537445,0.017765695229172707,2.739527940750122,-0.20986424386501312,-3.8356778532033786e-05,2.7475546110086477,9.891196599631131,0.49878695607185364,-0.04017671197652817,0.0,False,1,0.0,,,60.0,40.0,80.0,5.0
31.210376682458445,1363,265.6599426269531,330.8524169921875,-0.0012982178013771772,-3.361481189727783,0.04481969773769379,0.015999600291252136,2.750685930252075,-0.21048757433891296,-0.0006581401685252786,2.7587277029432036,9.931419730595533,0.4988786280155182,-0.03749539330601692,0.0,False,1,0.0,,,60.0,40.0,80.0,5.0
31.240519501967356,1364,265.7442626953125,330.84613037109375,-0.0012489318614825606,-3.4235544204711914,0.04664335772395134,0.010942107997834682,2.816563606262207,-0.20484155416488647,0.0012072657700628042,2.8240028448859773,10.166410241589519,0.49877628684043884,-0.022667191922664642,0.0,False,1,0.0,,,60.0,40.0,80.0,5.0
31.27331463689916,1365,265.8377685546875,330.8392028808594,-0.0012377548264339566,-3.4842536449432373,0.04925249144434929,0.008711717091500759,2.8667027950286865,-0.2114388644695282,0.00014240264135878533,2.8744897510187717,10.348163103667579,0.49754849076271057,-0.027457747608423233,0.0,False,1,0.0,,,60.0,40.0,80.0,5.0
31.307680357946083,1366,265.93731689453125,330.831787109375,-0.0012457657139748335,-3.5468759536743164,0.0507824532687664,0.007765107788145542,2.9110615253448486,-0.2154417634010315,-0.00026879311189986765,2.919022855342205,10.508482279231938,0.497416228055954,-0.02548271417617798,0.0,False,1,0.0,,,60.0,40.0,80.0,5.0
31.342264332575724,1367,266.03887939453125,330.82415771484375,-0.0012548065278679132,-3.6057748794555664,0.05103516951203346,0.007212019991129637,2.9520866870880127,-0.2194029986858368,-0.00023391723516397178,2.9602286294527804,10.65682306603001,0.4975166320800781,-0.024107925593852997,0.0,False,1,0.0,,,60.0,40.0,80.0,5.0
31.375916194869205,1368,266.13916015625,330.8166198730469,-0.0012535476125776768,-3.6606760025024414,0.05132203921675682,0.006915835198014975,2.9981114864349365,-0.223917618393898,1.639366200834047e-05,3.0064616387356504,10.823261899448342,0.49771177768707275,-0.022930365055799484,0.0,False,1,0.0,,,60.0,40.0,80.0,5.0
31.405554971424863,1369,266.2284851074219,330.8097229003906,-0.0012977218721061945,-3.708557367324829,0.050461433827877045,0.008893365040421486,3.0214085578918457,-0.23355838656425476,-0.0011943149147555232,3.030422515099948,10.909521054359814,0.4971683621406555,-0.030016973614692688,0.0,False,1,0.0,,,60.0,40.0,80.0,5.0
31.445304575143382,1370,266.34942626953125,330.8001403808594,-0.0013317108387127519,-3.7886972427368164,0.04848751053214073,0.010989919304847717,3.0585646629333496,-0.24165450036525726,-0.0005464077112264931,3.0680963142399498,11.04514673126382,0.49733394384384155,-0.028853733092546463,0.0,False,1,0.0,,,60.0,40.0,80.0,5.0
31.475856949342415,1371,266.44415283203125,330.7927551269531,-0.0012737655779346824,-3.8385934829711914,0.04976475611329079,0.008642565459012985,3.1247365474700928,-0.23947961628437042,0.0014851808082312346,3.133900314858955,11.282041133492239,0.49771249294281006,-0.017249584197998047,0.0,False,1,0.0,,,60.0,40.0,80.0,5.0
31.508539830101654,1372,266.5475769042969,330.7850646972656,-0.001252136193215847,-3.8721630573272705,0.052824679762125015,0.003839705139398575,3.1860759258270264,-0.2354615330696106,0.0003674697654787451,3.1947647916120623,11.501153249803425,0.49930495023727417,-0.009723599068820477,0.0,False,1,0.0,,,60.0,40.0,80.0,5.0
31.537615521578118,1373,266.6409606933594,330.7781677246094,-0.0012884520692750812,-3.9014904499053955,0.05422486737370491,0.0012507812352851033,3.219879150390625,-0.2361827939748764,-0.0011371993459761143,3.2285299051599914,11.622707658575969,0.4999147951602936,-0.009723599068820477,0.0,False,1,0.0,,,60.0,40.0,80.0,5.0
31.57037482294254,1374,266.74761962890625,330.7703552246094,-0.0012654113816097379,-3.9221508502960205,0.05589143559336662,-0.0007324219914153218,3.279724359512329,-0.23775431513786316,0.0005259227473288774,3.2883307718871544,11.837990778793756,0.4994385242462158,-0.00716084148734808,0.0,False,1,0.0,,,60.0,40.0,80.0,5.0
31.604569083778188,1375,266.861083984375,330.76263427734375,-0.0012581252958625555,-3.9143693447113037,0.057981472462415695,-0.008148193359375,3.3396530151367188,-0.2217998057603836,0.00020242690516170114,3.3470102265042114,12.049236815415162,0.500758945941925,0.010947922244668007,0.0,False,1,0.0,,,60.0,40.0,80.0,5.0
31.635172568960115,1376,266.96441650390625,330.75579833984375,-0.0012246703263372183,-3.8984084129333496,0.06001687049865723,-0.011230467818677425,3.397578716278076,-0.22368712723255157,0.0008349943091161549,3.404934325565007,12.257763572034024,0.5009748935699463,0.0060652317479252815,0.0,False,1,0.0,,,60.0,40.0,80.0,5.0
31.66506919148378,1377,267.0669250488281,330.74945068359375,-0.0012699508806690574,-3.8630998134613037,0.06113702058792114,-0.01602172665297985,3.439345598220825,-0.21182645857334137,-0.0012649440905079246,3.445862764626044,12.405105952653757,0.5006144642829895,0.01891532726585865,0.0,False,1,0.0,,,60.0,40.0,80.0,5.0
31.69387832353823,1378,267.1667175292969,330.7433166503906,-0.0012836074456572533,-3.8378305435180664,0.06093211472034454,-0.01672363467514515,3.4777867794036865,-0.21473278105258942,-0.0003673839382827282,3.4844097326842323,12.543875037663236,0.5001745820045471,0.011250554583966732,0.0,False,1,0.0,,,60.0,40.0,80.0,5.0
31.72763017262332,1379,267.28546142578125,330.73626708984375,-0.0012517928844317794,-3.7932755947113037,0.06163562461733818,-0.01861572265625,3.5418529510498047,-0.20892256498336792,0.0007513237069360912,3.5480095165468133,12.772834259568528,0.49968475103378296,0.01866312511265278,0.0,False,1,0.0,,,60.0,40.0,80.0,5.0
31.768306438578293,1380,267.4314880371094,330.72796630859375,-0.0012165451189503074,-3.7328197956085205,0.06384860724210739,-0.01943969540297985,3.6214282512664795,-0.20837156474590302,0.0005842017708346248,3.627418038957925,13.05870494024853,0.49940699338912964,0.01777462475001812,0.0,False,1,0.0,,,60.0,40.0,80.0,5.0
31.802514114184305,1381,267.5567932128906,330.7208557128906,-0.0012130355462431908,-3.6812446117401123,0.06586351245641708,-0.0191650353372097,3.686404228210449,-0.20838786661624908,1.1224746231164318e-05,3.6922894844319485,13.292242143955015,0.49940699338912964,0.01777462475001812,0.0,False,1,0.0,,,60.0,40.0,80.0,5.0
31.847259883536026,1382,267.7239685058594,330.7117919921875,-0.001225700369104743,-3.6048896312713623,0.06776230037212372,-0.02029418759047985,3.767686367034912,-0.2031981647014618,-0.00023734092246741056,3.773161818794615,13.583382547660616,0.4998224675655365,0.021528273820877075,0.0,False,1,0.0,,,60.0,40.0,80.0,5.0
31.884183768881485,1383,267.8645324707031,330.7039489746094,-0.001243057195097208,-3.5589914321899414,0.06868437677621841,-0.015258788131177425,3.831798553466797,-0.21670015156269073,-0.0004541301750577986,3.837921223301977,13.816516403887118,0.49877071380615234,0.009197731502354145,0.0,False,1,0.0,,,60.0,40.0,80.0,5.0
31.916623373283073,1384,267.9901123046875,330.6968994140625,-0.0012203216319903731,-3.524902820587158,0.06951766461133957,-0.012298583053052425,3.8932855129241943,-0.21919213235378265,0.0004981469828635454,3.899450925987096,14.038023333553546,0.49903610348701477,0.011297746561467648,0.0,False,1,0.0,,,60.0,40.0,80.0,5.0
31.95199811900966,1385,268.1292724609375,330.6888122558594,-0.0012329482706263661,-3.5030224323272705,0.07048071920871735,-0.007263183128088713,3.958704948425293,-0.23149895668029785,-0.00038401602068915963,3.965468040862172,14.27568494710382,0.4981894791126251,0.0032208962365984917,0.0,False,1,0.0,,,60.0,40.0,80.0,5.0
31.999125734670088,1386,268.31829833984375,330.6781921386719,-0.0012683868408203125,-3.4614875316619873,0.07127302139997482,-0.008209228515625,4.04403829574585,-0.22584637999534607,-0.0005188846262171865,4.05033981217098,14.58122332381553,0.49736690521240234,0.011882485821843147,0.0,False,1,0.0,,,60.0,40.0,80.0,5.0
32.03347595478408,1387,268.45849609375,330.6706237792969,-0.0012509918306022882,-3.4182746410369873,0.07143011689186096,-0.010925292037427425,4.104665756225586,-0.2208726853132248,0.00043743132846429944,4.11060408027757,14.798174688999252,0.4984656870365143,0.015486997552216053,0.0,False,1,0.0,,,60.0,40.0,80.0,5.0
32.0677544742357,1388,268.6004943847656,330.6632080078125,-0.0012378310784697533,-3.3664562702178955,0.07132766395807266,-0.01361083984375,4.163998126983643,-0.21668633818626404,0.0003468322684057057,4.169632296854541,15.010676268676347,0.4984165132045746,0.017205573618412018,0.0,False,1,0.0,,,60.0,40.0,80.0,5.0
32.105445702327415,1389,268.75897216796875,330.6549987792969,-0.0012592696584761143,-3.314514636993408,0.07096566259860992,-0.01318359188735485,4.227622985839844,-0.22041009366512299,-0.00043169973650947213,4.2333647263324155,15.240113014796696,0.49802476167678833,0.012671700678765774,0.0,False,1,0.0,,,60.0,40.0,80.0,5.0
32.13818296487443,1390,268.8984680175781,330.6476745605469,-0.0012319564120844007,-3.2793891429901123,0.07050804048776627,-0.01080322079360485,4.281674861907959,-0.22626087069511414,0.0006620120839215815,4.287649011167105,15.435536440201577,0.49721550941467285,0.008637947961688042,0.0,False,1,0.0,,,60.0,40.0,80.0,5.0
32.17336277733557,1391,269.05035400390625,330.63983154296875,-0.001236877404153347,-3.2396247386932373,0.06984551250934601,-0.01068115234375,4.339129447937012,-0.2236219346523285,-0.00010025023948401213,4.344887932462921,15.641596556866515,0.49796706438064575,0.012619473971426487,0.0,False,1,0.0,,,60.0,40.0,80.0,5.0
32.21200661803596,1392,269.21954345703125,330.631591796875,-0.0012699126964434981,-3.1763923168182373,0.06895758956670761,-0.014862060546875,4.401436805725098,-0.2124725729227066,-0.0005785655812360346,4.406562252342985,15.863624108434745,0.49852848052978516,0.019722362980246544,0.0,False,1,0.0,,,60.0,40.0,80.0,5.0
32.252981276018545,1393,269.4014587402344,330.62249755859375,-0.0012334060156717896,-3.131439685821533,0.068008191883564,-0.010528563521802425,4.465204238891602,-0.22788245975971222,0.0006297302315942943,4.471015511831941,16.095655842594986,0.4983181357383728,0.0053637376986444,0.0,False,1,0.0,,,60.0,40.0,80.0,5.0
32.289443348301575,1394,269.56549072265625,330.61328125,-0.0012558364542201161,-3.1442573070526123,0.0670861154794693,0.0020327502861618996,4.519433975219727,-0.2585787773132324,-0.0005840683006681502,4.526825243101722,16.2965708751662,0.4966411888599396,-0.013404482044279575,0.0,False,1,0.0,,,60.0,40.0,80.0,5.0
32.3312384232413,1395,269.75592041015625,330.60211181640625,-0.0012398146791383624,-3.180084705352783,0.065959133207798,0.009305407293140888,4.5821146965026855,-0.26827627420425415,0.0003786182205658406,4.589961589660481,16.52386172277773,0.4973026514053345,-0.008697976358234882,0.0,False,1,0.0,,,60.0,40.0,80.0,5.0
32.36364161293022,1396,269.90533447265625,330.59320068359375,-0.0012235259637236595,-3.210571765899658,0.06509169936180115,0.011697285808622837,4.629740238189697,-0.2758719325065613,0.00045536039397120476,4.6379521562442605,16.696627762479338,0.496459037065506,-0.009551958180963993,0.0,False,1,0.0,,,60.0,40.0,80.0,5.0
32.39705729554407,1397,270.06103515625,330.583984375,-0.0012217712355777621,-3.237549066543579,0.06416962295770645,0.011286974884569645,4.678371906280518,-0.2779833972454071,4.4536591303767636e-05,4.686623354250095,16.87184407530034,0.49693161249160767,-0.006140328012406826,0.0,False,1,0.0,,,60.0,40.0,80.0,5.0
32.426004762528464,1398,270.197265625,330.5758056640625,-0.0012603759532794356,-3.259186267852783,0.06334316730499268,0.010757038369774818,4.719677448272705,-0.2823728919029236,-0.0011032485635951161,4.728117054702957,17.021221396930645,0.49656951427459717,-0.007026429288089275,0.0,False,1,0.0,,,60.0,40.0,80.0,5.0
32.45761609706096,1399,270.3473205566406,330.5665283203125,-0.0012327193981036544,-3.2943732738494873,0.06244158744812012,0.013240869157016277,4.7634782791137695,-0.296037882566452,0.0007716846303083003,4.772668471515728,17.18160649745662,0.4970652163028717,-0.014007301069796085,0.0,False,1,0.0,,,60.0,40.0,80.0,5.0
32.487358663929626,1400,270.48980712890625,330.5574035644531,-0.0012742995750159025,-3.3369152545928955,0.06158098205924034,0.015858491882681847,4.8043718338012695,-0.3058590292930603,-0.0011069679167121649,4.814098014021011,17.330752850475637,0.49793630838394165,-0.014857196249067783,0.0,False,1,0.0,,,60.0,40.0,80.0,5.0
32.51685762661509,1401,270.63232421875,330.54815673828125,-0.001294631976634264,-3.3831491470336914,0.060747697949409485,0.017615457996726036,4.844533443450928,-0.3141413629055023,-0.0005105018499307334,4.85470795632598,17.47694864277353,0.4974896013736725,-0.015090172179043293,0.0,False,1,0.0,,,60.0,40.0,80.0,5.0
32.54749649646692,1402,270.7815246582031,330.5381164550781,-0.0012404632288962603,-3.4425060749053955,0.05990075692534447,0.02107088640332222,4.885110855102539,-0.32968249917030334,0.0015247344272211194,4.896223130303082,17.626403269091096,0.4979611039161682,-0.02121390402317047,0.0,False,1,0.0,,,60.0,40.0,80.0,5.0
32.57766848127358,1403,270.9296569824219,330.5279235839844,-0.0012034988030791283,-3.5045480728149414,0.05909479409456253,0.02276928722858429,4.925267219543457,-0.337384432554245,0.001041474286466837,4.936809346522101,17.772513647479563,0.4992421269416809,-0.018288258463144302,0.0,False,1,0.0,,,60.0,40.0,80.0,5.0
32.60923856194131,1404,271.08599853515625,330.5174865722656,-0.0011927413288503885,-3.5480353832244873,0.05832981318235397,0.017954329028725624,4.9679718017578125,-0.32900214195251465,0.00020646094344556332,4.978853911805028,17.923874082498102,0.4992912709712982,-0.005375314503908157,0.0,False,1,0.0,,,60.0,40.0,80.0,5.0
32.64599460433237,1405,271.26971435546875,330.505615234375,-0.001139144878834486,-3.5712289810180664,0.05738041549921036,0.009693661704659462,5.0167694091796875,-0.323463499546051,0.0038252638187259436,5.027187938904111,18.097876580054802,0.4995759129524231,-0.0018448662012815475,0.0,False,1,0.0,,,60.0,40.0,80.0,5.0
32.67932983930223,1406,271.437744140625,330.4934997558594,-0.0010567473946139216,-3.6460580825805664,0.05636954680085182,0.02423427440226078,5.0549397468566895,-0.3757380545139313,0.002053127158433199,5.068885394768026,18.247987421164893,0.49986305832862854,-0.04240988940000534,0.0,False,1,0.0,,,60.0,40.0,80.0,5.0
32.71425381372683,1407,271.6143798828125,330.4798889160156,-0.0010095596080645919,-3.754638910293579,0.05171819031238556,0.03412212058901787,5.03977108001709,-0.387692391872406,0.0011769103584811091,5.054661147377771,18.196780130559976,0.5013042092323303,-0.03228842839598656,0.0,False,1,0.0,,,60.0,40.0,80.0,5.0
32.74741203780286,1408,271.7801818847656,330.466552734375,-0.0010028838878497481,-3.877380847930908,0.03845396265387535,0.03892271965742111,4.98392915725708,-0.401834100484848,0.000500106776598841,5.000102072855765,18.000367462280753,0.4928351640701294,-0.042030639946460724,0.0,False,1,0.0,,,60.0,40.0,80.0,5.0
32.77778119291179,1409,271.932861328125,330.45330810546875,-0.0010152054019272327,-4.021851062774658,0.034915924072265625,0.04947640746831894,5.056420803070068,-0.4425719082355499,0.0006755351787433028,5.075752327293639,18.2727083782571,0.4993109107017517,-0.05287708342075348,0.0,False,1,0.0,,,60.0,40.0,80.0,5.0
32.81185790221207,1410,272.1066589355469,330.4377136230469,-0.0009944915072992444,-4.180451393127441,0.03848128393292427,0.052768904715776443,5.126821994781494,-0.456099271774292,0.00030711173894815147,5.147070079783833,18.5294522872218,0.5028085708618164,-0.040033530443906784,0.0,False,1,0.0,,,60.0,40.0,80.0,5.0
32.84603639016859,1411,272.2803955078125,330.4210205078125,-0.0009957504225894809,-4.392152309417725,0.03400067985057831,0.061948224902153015,5.109470844268799,-0.49464336037635803,0.0001261997240362689,5.133358002158402,18.480088807770247,0.4969462752342224,-0.06680122762918472,0.0,False,1,0.0,,,60.0,40.0,80.0,5.0
32.87692462536506,1412,272.4373474121094,330.4051818847656,-0.0009978103917092085,-4.605531215667725,0.029738642275333405,0.06555211544036865,5.092074394226074,-0.5085626244544983,6.718158692819998e-05,5.117407310722712,18.422666318601763,0.4995827078819275,-0.05168217420578003,0.0,False,1,0.0,,,60.0,40.0,80.0,5.0
32.905999704031274,1413,272.5844421386719,330.390625,-0.0010116195771843195,-4.807193279266357,0.022314226254820824,0.055287495255470276,5.045829772949219,-0.48920291662216187,-0.00029857634217478335,5.069488897350523,18.250160030461885,0.5016449093818665,-0.018384810537099838,0.0,False,1,0.0,,,60.0,40.0,80.0,5.0
32.937007763190195,1414,272.740478515625,330.3752746582031,-0.001038360525853932,-4.940310001373291,0.014616603963077068,0.04792965576052666,5.028934001922607,-0.49343234300613403,-0.0006041144952178001,5.05308351779111,18.191100664047998,0.5012158155441284,-0.029919907450675964,0.0,False,1,0.0,,,60.0,40.0,80.0,5.0
32.967875697417185,1415,272.8953552246094,330.359375,-0.0010631942423060536,-5.080050468444824,0.008701660670340061,0.050955794751644135,5.013058185577393,-0.5187956094741821,-0.00046252249740064144,5.039831492254602,18.143393372116567,0.5002684593200684,-0.05250946432352066,0.0,False,1,0.0,,,60.0,40.0,80.0,5.0
32.99921460892074,1416,273.05206298828125,330.3422546386719,-0.0010774231050163507,-5.248752117156982,0.004200566094368696,0.05838153883814812,4.998944282531738,-0.5454415678977966,-0.0001487636473029852,5.0286131752182115,18.103007430785564,0.5002206563949585,-0.059742629528045654,0.0,False,1,0.0,,,60.0,40.0,80.0,5.0
33.03146226028912,1417,273.2130126953125,330.32452392578125,-0.0010855102445930243,-5.411868095397949,0.0007923019002191722,0.05614128336310387,4.987788677215576,-0.5452976226806641,-0.00016579627117607743,5.017507888718213,18.063028399385566,0.502647876739502,-0.03496287018060684,0.0,False,1,0.0,,,60.0,40.0,80.0,5.0
33.07545244391076,1418,273.43218994140625,330.30078125,-0.0011468505254015326,-5.575747966766357,-0.0014684905763715506,0.04251383617520332,5.012699604034424,-0.5376255512237549,-0.00531176570802927,5.041450859471949,18.149223094099018,0.5026085376739502,-0.017741069197654724,0.0,False,1,0.0,,,60.0,40.0,80.0,5.0
33.10790853272192,1419,273.59844970703125,330.2823486328125,-0.0011203002650290728,-5.692326068878174,0.015402075834572315,0.04341632500290871,5.17568826675415,-0.5776498913764954,0.00011430263111833483,5.207823772430183,18.748165580748662,0.50257807970047,-0.03370700031518936,0.0,False,1,0.0,,,60.0,40.0,80.0,5.0
33.136675028828904,1420,273.7489929199219,330.2662353515625,-0.0010927963303402066,-5.747194766998291,0.0316169448196888,0.03016134910285473,5.23806095123291,-0.5520870685577393,0.0005990600329823792,5.267075376237996,18.961471354456783,0.5039145350456238,0.006061520427465439,0.0,False,1,0.0,,,60.0,40.0,80.0,5.0
33.16622027638368,1421,273.90240478515625,330.24993896484375,-0.0011011123424395919,-5.782657146453857,0.03109784983098507,0.023636236786842346,5.172006130218506,-0.5504327416419983,-0.0003498554287943989,5.2012136791799035,18.724369245047654,0.49953898787498474,-0.01258906815201044,0.0,False,1,0.0,,,60.0,40.0,80.0,5.0
33.20035248505883,1422,274.0790100097656,330.2307434082031,-0.0011182784801349044,-5.851353168487549,0.02585226483643055,0.026780150830745697,5.159730911254883,-0.5687789916992188,-0.00022611617168877274,5.1909857126644114,18.687548565591882,0.5002789497375488,-0.02796970307826996,0.0,False,1,0.0,,,60.0,40.0,80.0,5.0
33.235561496345326,1423,274.2606201171875,330.2103576660156,-0.0011308288667351007,-5.939426422119141,0.019411396235227585,0.029411356896162033,5.143533706665039,-0.5769773125648499,-8.141517173498869e-05,5.175793834518758,18.632857804267527,0.5017101168632507,-0.02361968904733658,0.0,False,1,0.0,,,60.0,40.0,80.0,5.0
33.272319751558825,1424,274.44976806640625,330.1898498535156,-0.0011460494715720415,-5.987370014190674,0.01283392496407032,0.016980577260255814,5.127950191497803,-0.5492822527885437,-0.0003347110759932548,5.15728458316412,18.566224499390835,0.5004245638847351,0.008540710434317589,0.0,False,1,0.0,,,60.0,40.0,80.0,5.0
33.303511396748945,1425,274.6103515625,330.1730651855469,-0.0011655044509097934,-5.985507965087891,0.010354566387832165,0.005223114974796772,5.150761127471924,-0.5344321727752686,-0.0006014156388118863,5.178412720252598,18.64228579290935,0.5006608366966248,0.013717727735638618,0.0,False,1,0.0,,,60.0,40.0,80.0,5.0
33.33788737724535,1426,274.7878112792969,330.1548767089844,-0.0011882400140166283,-5.962620258331299,0.009466641582548618,-0.00238037109375,5.15242338180542,-0.5276782512664795,-0.0005609798245131969,5.179373645232907,18.645745122838466,0.4996325969696045,0.008997008204460144,0.0,False,1,0.0,,,60.0,40.0,80.0,5.0
33.370346762938425,1427,274.95574951171875,330.1378479003906,-0.0011984253069385886,-5.936954975128174,0.009459811262786388,-0.005126953125,5.169521331787109,-0.5262899398803711,-0.00022264003928285092,5.196242098881637,18.706471555973895,0.4991176426410675,0.006949304603040218,0.0,False,1,0.0,,,60.0,40.0,80.0,5.0
33.40359848062508,1428,275.12823486328125,330.12060546875,-0.001200180035084486,-5.896854400634766,0.010258943773806095,-0.01025390625,5.18343448638916,-0.5141062140464783,1.070976213668473e-05,5.208867273613752,18.75192218500951,0.5021259188652039,0.01684066839516163,0.0,False,1,0.0,,,60.0,40.0,80.0,5.0
33.43904693122022,1429,275.3124694824219,330.1026916503906,-0.0011963271535933018,-5.840060710906982,0.010224792174994946,-0.014801025390625,5.1855621337890625,-0.5046019554138184,0.0001594066561665386,5.210055450972178,18.756199623499842,0.5011646747589111,0.01649533212184906,0.0,False,1,0.0,,,60.0,40.0,80.0,5.0
33.47470436687581,1430,275.4978942871094,330.0848083496094,-0.0011912536574527621,-5.779453277587891,0.009418830275535583,-0.01660156063735485,5.18970251083374,-0.4993821978569031,0.0001544094120617956,5.213673825080802,18.769225770290888,0.5024466514587402,0.01424156129360199,0.0,False,1,0.0,,,60.0,40.0,80.0,5.0
33.5070824555587,1431,275.66680908203125,330.0689392089844,-0.0011848830617964268,-5.713322639465332,0.01032041572034359,-0.02056884765625,5.218655109405518,-0.4877241849899292,0.00018523215840104967,5.2413963851114485,18.869026986401217,0.502385139465332,0.022983785718679428,0.0,False,1,0.0,,,60.0,40.0,80.0,5.0
33.541311588836834,1432,275.8461608886719,330.05242919921875,-0.001175842247903347,-5.639163494110107,0.012096264399588108,-0.022308349609375,5.2340192794799805,-0.48362910747528076,0.00017429351282771677,5.25631572129602,18.922736596665672,0.5036945343017578,0.0173100046813488,0.0,False,1,0.0,,,60.0,40.0,80.0,5.0
33.57002632203512,1433,275.9969482421875,330.03863525390625,-0.0011707687517628074,-5.578860759735107,0.012888566590845585,-0.02227783203125,5.2587761878967285,-0.482742577791214,0.00012258529022801667,5.280886990442923,19.011193165594523,0.49939560890197754,0.0173100046813488,0.0,False,1,0.0,,,60.0,40.0,80.0,5.0
33.60070561687462,1434,276.1593933105469,330.02294921875,-0.0011657333234325051,-5.561619281768799,0.01836637780070305,-0.009155272506177425,5.325912952423096,-0.5195046663284302,-0.00025702951825223863,5.351189955625691,19.26428384025249,0.49698105454444885,-0.017049185931682587,0.0,False,1,0.0,,,60.0,40.0,80.0,5.0
33.639313471270725,1435,276.3645935058594,330.0028076171875,-0.0011794662568718195,-5.568393230438232,0.02030615136027336,-0.001251220703125,5.324352741241455,-0.5213298201560974,-0.0004408073436934501,5.349814677992173,19.259332840771823,0.4989050626754761,-0.0029939962550997734,0.0,False,1,0.0,,,60.0,40.0,80.0,5.0
33.67507880250923,1436,276.55474853515625,329.9841003417969,-0.0011930083855986595,-5.578433513641357,0.019322603940963745,0.0009928259532898664,5.33128023147583,-0.5242637991905212,-0.0002656364522408694,5.356995567314704,19.285184042332936,0.4989050626754761,-0.0029939962550997734,0.0,False,1,0.0,,,60.0,40.0,80.0,5.0
33.710894104791805,1437,276.7454833984375,329.9654235839844,-0.0012014007661491632,-5.583347797393799,0.01784728281199932,0.00028928424580954015,5.340473651885986,-0.52243971824646,-0.00014370918506756425,5.365967024343536,19.317481287636728,0.4992968440055847,0.0012268228456377983,0.0,False,1,0.0,,,60.0,40.0,80.0,5.0
33.74633009801619,1438,276.9345397949219,329.94659423828125,-0.0012044906616210938,-5.602420330047607,0.016843246296048164,0.0046234773471951485,5.351421356201172,-0.5355332493782043,3.435134931351058e-05,5.378150834067002,19.361343002641206,0.4992060959339142,-0.011182949878275394,0.0,False,1,0.0,,,60.0,40.0,80.0,5.0
33.77647154475562,1439,277.0966796875,329.9299011230469,-0.001195449847728014,-5.640995502471924,0.02053837850689888,0.011182398535311222,5.406156063079834,-0.5560466051101685,0.0002238750457763672,5.434676738827198,19.564836259777913,0.5029856562614441,-0.01830979436635971,0.0,False,1,0.0,,,60.0,40.0,80.0,5.0
33.805259213550016,1440,277.2521057128906,329.9140930175781,-0.0011879348894581199,-5.667575836181641,0.021487774327397346,0.009289261884987354,5.380543231964111,-0.5441874861717224,0.00016304969904012978,5.4079927438677196,19.46877387792379,0.5035964250564575,0.003145935945212841,0.0,False,1,0.0,,,60.0,40.0,80.0,5.0
33.840610407991335,1441,277.443115234375,329.8948669433594,-0.0011878585210070014,-5.684237957000732,0.02056569792330265,0.005580812226980925,5.396940231323242,-0.5426138639450073,-2.6941299438476562e-05,5.424149119128874,19.526936828863946,0.501310408115387,-0.00033868011087179184,0.0,False,1,0.0,,,60.0,40.0,80.0,5.0
33.88805204327218,1442,277.6996154785156,329.86688232421875,-0.0011817169142886996,-5.806765556335449,0.018024867400527,0.030478496104478836,5.4140520095825195,-0.6092774271965027,0.0005628490471281111,5.448227093519025,19.61361753666849,0.5034387707710266,-0.05745668709278107,0.0,False,1,0.0,,,60.0,40.0,80.0,5.0
33.92133575375192,1443,277.8802490234375,329.84600830078125,-0.0011564636370167136,-5.941746234893799,0.019192829728126526,0.03920610249042511,5.449820518493652,-0.6251688599586487,0.0007121944217942655,5.485561073807975,19.748019865708713,0.5035274028778076,-0.032442133873701096,0.0,False,1,0.0,,,60.0,40.0,80.0,5.0
33.956966508878395,1444,278.07440185546875,329.8234558105469,-0.0011370086576789618,-6.071415901184082,0.019923660904169083,0.03815039247274399,5.465274333953857,-0.6311495900154114,0.0003909110964741558,5.501597359236941,19.805750493252987,0.5025350451469421,-0.02380550280213356,0.0,False,1,0.0,,,60.0,40.0,80.0,5.0
33.98978953133337,1445,278.254150390625,329.80242919921875,-0.0011275863507762551,-6.17957067489624,0.021747320890426636,0.03648214787244797,5.496760368347168,-0.6421046853065491,0.00015371321933344007,5.534137059881375,19.92289341557295,0.502601146697998,-0.02380550280213356,0.0,False,1,0.0,,,60.0,40.0,80.0,5.0
34.02186308125965,1446,278.4309387207031,329.78143310546875,-0.0011218643048778176,-6.279820442199707,0.024513548240065575,0.035646043717861176,5.531257152557373,-0.654424250125885,2.9044151233392768e-05,5.569836334014985,20.051410802453947,0.502601146697998,-0.02380550280213356,0.0,False,1,0.0,,,60.0,40.0,80.0,5.0
34.062244158936664,1447,278.6548767089844,329.75482177734375,-0.0011204909533262253,-6.386052131652832,0.027348075062036514,0.031172867864370346,5.555688858032227,-0.659103512763977,-0.0001174497592728585,5.594648884567796,20.140735984444067,0.5017840266227722,-0.015139021910727024,0.0,False,1,0.0,,Broken,60.0,40.0,80.0,5.0
34.095015563769266,1448,278.8376770019531,329.7322998046875,-0.0011210250668227673,-6.493748664855957,0.028905358165502548,0.038036320358514786,5.577416896820068,-0.6939021944999695,1.3389587365963962e-05,5.620416309904913,20.23349871565769,0.5009545087814331,-0.04250252991914749,0.0,False,1,0.0,,Broken,60.0,40.0,80.0,5.0
34.13165205414407,1449,279.0423889160156,329.70654296875,-0.0011178589193150401,-6.623052597045898,0.027600793167948723,0.03975222632288933,5.577162265777588,-0.6994877457618713,0.0001170444447780028,5.620855989881241,20.235081563572468,0.5017562508583069,-0.02436608076095581,0.0,False,1,0.0,,Broken,60.0,40.0,80.0,5.0
34.16206087428145,1450,279.21295166015625,329.68475341796875,-0.0011155700776726007,-6.731604099273682,0.027696415781974792,0.04121553897857666,5.620786666870117,-0.7194516658782959,6.064891567802988e-05,5.666643932494631,20.399918156980675,0.4998971223831177,-0.030958428978919983,0.0,False,1,0.0,,Broken,60.0,40.0,80.0,5.0
34.194990585325286,1451,279.3987121582031,329.6606140136719,-0.0011106490856036544,-6.854620456695557,0.028973661363124847,0.04330892488360405,5.642027854919434,-0.736248254776001,9.860038699116558e-05,5.6898628997603735,20.483506439137344,0.49943432211875916,-0.030958428978919983,0.0,False,1,0.0,,Broken,60.0,40.0,80.0,5.0
34.22886992874555,1452,279.59051513671875,329.63580322265625,-0.0011104964651167393,-6.954075813293457,0.02880973555147648,0.0362294539809227,5.659951686859131,-0.72853684425354,-0.00010230064071947709,5.7066469175409695,20.543928903147492,0.5003231167793274,-0.009676818735897541,0.0,False,1,0.0,,Broken,60.0,40.0,80.0,5.0
34.2709210019093,1453,279.8294982910156,329.6052551269531,-0.0011230468517169356,-7.033148765563965,0.02807890623807907,0.025788163766264915,5.6992411613464355,-0.7265281677246094,-0.00035257337731309235,5.745362749034279,20.683305896523404,0.499960333108902,-0.006658164784312248,0.0,False,1,0.0,,Broken,60.0,40.0,80.0,5.0
34.31125159445219,1454,280.05975341796875,329.57568359375,-0.0011371230939403176,-7.098884105682373,0.027751056477427483,0.023257814347743988,5.717634677886963,-0.7378595471382141,-0.00029248715145513415,5.765048404534631,20.75417425632467,0.4993983805179596,-0.013230052776634693,0.0,False,1,0.0,,Broken,60.0,40.0,80.0,5.0
34.34522148105316,1455,280.2546081542969,329.5506591796875,-0.0011468505254015326,-7.141029357910156,0.027361735701560974,0.01876271702349186,5.732635498046875,-0.7344036102294922,-0.00026947021251544356,5.77948600558903,20.806149620120507,0.49907806515693665,-0.003328443504869938,0.0,False,1,0.0,,Broken,60.0,40.0,80.0,5.0
34.38452113675885,1456,280.48004150390625,329.5224914550781,-0.0011673354310914874,-7.141669750213623,0.02304505743086338,0.005513784475624561,5.717339515686035,-0.7093899250030518,-0.0004919624188914895,5.761180907188029,20.740251265876907,0.49989303946495056,0.014028584584593773,0.0,False,1,0.0,,Broken,60.0,40.0,80.0,5.0
34.42229226487689,1457,280.6963806152344,329.49664306640625,-0.0011910247849300504,-7.081122875213623,0.01762871816754341,-0.0108642578125,5.716197490692139,-0.677926242351532,-0.00023313521523959935,5.756257273351843,20.722526184066634,0.5005377531051636,0.029111258685588837,0.0,False,1,0.0,,Broken,60.0,40.0,80.0,5.0
34.4579200881999,1458,280.9006652832031,329.4729309082031,-0.0011911772890016437,-6.991095542907715,0.014630264602601528,-0.02059936709702015,5.729401588439941,-0.6632183790206909,0.00022472381533589214,5.7676599440665495,20.76357579863958,0.5001612901687622,0.02491358295083046,0.0,False,1,0.0,,Broken,60.0,40.0,80.0,5.0
34.497072799829766,1459,281.1252746582031,329.44757080078125,-0.0011824417160823941,-6.871618270874023,0.01162498164921999,-0.028320306912064552,5.722100734710693,-0.6428960561752319,0.00035241126897744834,5.758103184332149,20.729171463595737,0.4990617334842682,0.0284738652408123,0.0,False,1,0.0,,Broken,60.0,40.0,80.0,5.0
34.53496623667888,1460,281.3426208496094,329.4237365722656,-0.0011717224260792136,-6.742650985717773,0.008947547525167465,-0.0334472693502903,5.725481986999512,-0.6264122724533081,0.0003575706505216658,5.759647250170167,20.7347301006126,0.4978258013725281,0.028931867331266403,0.0,False,1,0.0,,Broken,60.0,40.0,80.0,5.0
34.571082598296925,1461,281.5500793457031,329.4011535644531,-0.0011621856829151511,-6.628605365753174,0.008312339894473553,-0.0326843224465847,5.740571975708008,-0.6242303848266602,0.00020964622672181576,5.77441167787477,20.787882040349174,0.49830445647239685,0.019230125471949577,0.0,False,1,0.0,,Broken,60.0,40.0,80.0,5.0
34.60172315011732,1462,281.7272033691406,329.38226318359375,-0.0011537170503288507,-6.535649299621582,0.011549849063158035,-0.0334167443215847,5.79478120803833,-0.6187151670455933,0.00011180877481820062,5.827718054218789,20.979784995187643,0.4990268349647522,0.024185892194509506,0.0,False,1,0.0,,Broken,60.0,40.0,80.0,5.0
34.63478278438561,1463,281.9197082519531,329.362060546875,-0.0011434173211455345,-6.433415412902832,0.016576867550611496,-0.0349426306784153,5.82581090927124,-0.6107009053230286,9.803771536098793e-05,5.85773235612191,21.087836482038878,0.49891865253448486,0.024185892194509506,0.0,False,1,0.0,,Broken,60.0,40.0,80.0,5.0
34.66741070593707,1464,282.1107177734375,329.3423767089844,-0.0011352157453075051,-6.331334590911865,0.02028566040098667,-0.0361633338034153,5.857759475708008,-0.6031200289726257,8.85343542904593e-05,5.888726505148055,21.199415418533,0.4979512095451355,0.02425500378012657,0.0,False,1,0.0,,Broken,60.0,40.0,80.0,5.0
34.70153683866374,1465,282.3113098144531,329.32177734375,-0.0011307524982839823,-6.234684467315674,0.022444000467658043,-0.0340270958840847,5.876288414001465,-0.6023463606834412,-1.35517120725126e-05,5.907079368261449,21.265485725741218,0.4982716143131256,0.016772549599409103,0.0,False,1,0.0,,Broken,60.0,40.0,80.0,5.0
34.73076318646781,1466,282.4833984375,329.3044738769531,-0.0011322021018713713,-6.153538703918457,0.022088831290602684,-0.0338134728372097,5.891470432281494,-0.5952481627464294,-2.314567427674774e-05,5.921464703114915,21.317272931213694,0.49874770641326904,0.02360871061682701,0.0,False,1,0.0,,Broken,60.0,40.0,80.0,5.0
34.76803396339528,1467,282.70263671875,329.2831115722656,-0.0011351394932717085,-6.030034065246582,0.018946943804621696,-0.03875732421875,5.893322467803955,-0.5736563205718994,9.548186790198088e-05,5.921176512549831,21.31623544517939,0.49837541580200195,0.03128594532608986,0.0,False,1,0.0,,Broken,60.0,40.0,80.0,5.0
34.80034141684882,1468,282.89361572265625,329.26470947265625,-0.001130981370806694,-5.928928375244141,0.019807547330856323,-0.0374755896627903,5.931486129760742,-0.5747385025024414,6.179809133755043e-05,5.959266067027199,21.45335784129792,0.4995421767234802,0.017962560057640076,0.0,False,1,0.0,,Broken,60.0,40.0,80.0,5.0
34.83218465815298,1469,283.0830383300781,329.2466735839844,-0.001127548166550696,-5.839085102081299,0.022382529452443123,-0.035675048828125,5.965082168579102,-0.5710361003875732,-2.0613670130842365e-05,5.99235241839723,21.57246870623003,0.499575674533844,0.019134242087602615,0.0,False,1,0.0,,Broken,60.0,40.0,80.0,5.0
34.862724165199324,1470,283.265869140625,329.2297668457031,-0.0011236572172492743,-5.741488933563232,0.02553124539554119,-0.039154052734375,6.004313945770264,-0.5548763275146484,3.809452027780935e-05,6.029898315863925,21.70763393711013,0.4994105398654938,0.030774198472499847,0.0,False,1,0.0,,Broken,60.0,40.0,80.0,5.0
34.89612722280435,1471,283.46673583984375,329.2111511230469,-0.001120338449254632,-5.650669097900391,0.027505170553922653,-0.0350952111184597,6.024239540100098,-0.5620389580726624,-4.3125150114065036e-05,6.050400799017915,21.781442876464492,0.4994416832923889,0.010340461507439613,0.0,False,1,0.0,,Broken,60.0,40.0,80.0,5.0
34.925823838217184,1472,283.6451416015625,329.19500732421875,-0.0011266326764598489,-5.568820476531982,0.024595510214567184,-0.035675048828125,5.991066932678223,-0.5421469807624817,-8.077621168922633e-05,6.015547053020624,21.655969390874247,0.49845582246780396,0.02612869068980217,0.0,False,1,0.0,,Broken,60.0,40.0,80.0,5.0
34.96454292233102,1473,283.87725830078125,329.1741638183594,-0.0011364745441824198,-5.464938640594482,0.018564453348517418,-0.034423828125,5.979639053344727,-0.5348532795906067,-6.783485150663182e-05,6.00351157603413,21.61264167372287,0.4977962374687195,0.017596863210201263,0.0,False,1,0.0,,Broken,60.0,40.0,80.0,5.0
35.00066453288309,1474,284.0936584472656,329.1549987792969,-0.0011448669247329235,-5.379671573638916,0.014480000361800194,-0.031524658203125,5.985929012298584,-0.5318640470504761,-0.00012175559822935611,6.0095112546402,21.634240516704722,0.49663981795310974,0.014005214907228947,0.0,False,1,0.0,,Broken,60.0,40.0,80.0,5.0
35.03122310596518,1475,284.2775573730469,329.13897705078125,-0.0011466598371043801,-5.303010940551758,0.015176679939031601,-0.0331420861184597,6.031439304351807,-0.5208849906921387,-4.550457015284337e-05,6.05388976259717,21.794003145349812,0.49564477801322937,0.023426972329616547,0.0,False,1,0.0,,Broken,60.0,40.0,80.0,5.0
35.062145258067176,1476,284.4649658203125,329.123046875,-0.0011421965900808573,-5.223605155944824,0.018721546977758408,-0.0336914025247097,6.068681716918945,-0.5178523659706116,4.5776364459015895e-06,6.090736314619817,21.92665073263134,0.4957098066806793,0.01757097989320755,0.0,False,1,0.0,,Broken,60.0,40.0,80.0,5.0
35.098678095964715,1477,284.6870422363281,329.1048278808594,-0.0011384200770407915,-5.110537528991699,0.019855359569191933,-0.0391235314309597,6.067370414733887,-0.4932120740413666,0.00012957572471350431,6.087383831857337,21.914581794686413,0.49507761001586914,0.0312361903488636,0.0,False,1,0.0,,Broken,60.0,40.0,80.0,5.0
35.1463980327826,1478,284.976806640625,329.08197021484375,-0.0011348724365234375,-4.944307327270508,0.016050944104790688,-0.0426635779440403,6.074991703033447,-0.47711706161499023,0.00018767356232274324,6.093698787898095,21.937315636433144,0.4968620836734772,0.02761804684996605,0.0,False,1,0.0,,Broken,60.0,40.0,80.0,5.0
35.18076442438178,1479,285.1856689453125,329.06610107421875,-0.001131515484303236,-4.822542667388916,0.014643924310803413,-0.0434570349752903,6.092591285705566,-0.4660904109477997,0.0001403331698384136,6.110393511511864,21.99741664144271,0.49754220247268677,0.02558954432606697,0.0,False,1,0.0,,Broken,60.0,40.0,80.0,5.0
35.21566484752111,1480,285.3983459472656,329.05029296875,-0.0011283493367955089,-4.699403762817383,0.014268264174461365,-0.0440979041159153,6.105390548706055,-0.4536691904067993,9.305953426519409e-05,6.122222594386262,22.040001339790543,0.49457597732543945,0.026294920593500137,0.0,False,1,0.0,,Broken,60.0,40.0,80.0,5.0
35.26270497101359,1481,285.6849670410156,329.02960205078125,-0.0011306380620226264,-4.541872024536133,0.011228830553591251,-0.042724609375,6.082779884338379,-0.4374104142189026,-8.029937816900201e-06,6.098486614877764,21.954551813559952,0.4997096061706543,0.022564005106687546,0.0,False,1,0.0,,Broken,60.0,40.0,80.0,5.0
35.308453305391595,1482,285.9638671875,329.0104675292969,-0.0011321640340611339,-4.376252174377441,0.009275396354496479,-0.046417236328125,6.105599880218506,-0.41509997844696045,7.758140418445691e-05,6.119694264867304,22.030899353522294,0.49640050530433655,0.031913287937641144,0.0,False,1,0.0,,Broken,60.0,40.0,80.0,5.0
35.34046160313301,1483,286.1598815917969,328.9977722167969,-0.0011259460588917136,-4.247498989105225,0.011249320581555367,-0.0498046800494194,6.142401218414307,-0.3997824788093567,0.00013031958951614797,6.155397531867759,22.159431114723933,0.4985208809375763,0.031913287937641144,0.0,False,1,0.0,,Broken,60.0,40.0,80.0,5.0
35.37574244174175,1484,286.37677001953125,328.984375,-0.0011175154941156507,-4.099000453948975,0.013394000008702278,-0.0524597093462944,6.1571526527404785,-0.38279104232788086,0.0001572990440763533,6.16904026538801,22.208544955396835,0.49544578790664673,0.032955266535282135,0.0,False,1,0.0,,Broken,60.0,40.0,80.0,5.0
35.410101054934785,1485,286.58843994140625,328.9718322753906,-0.0011114120716229081,-3.9499220848083496,0.01425460446625948,-0.0543212853372097,6.172338008880615,-0.3663991391658783,0.00014451979950536042,6.183203445297574,22.259532403071265,0.499268114566803,0.032955266535282135,0.0,False,1,0.0,,Broken,60.0,40.0,80.0,5.0
35.43987394566648,1486,286.771728515625,328.9613342285156,-0.0011109542101621628,-3.82403564453125,0.012328490614891052,-0.0538635216653347,6.1408538818359375,-0.35234344005584717,6.281852256506681e-05,6.1509537717134615,22.143433578168462,0.4990135431289673,0.028269097208976746,0.0,False,1,0.0,,Broken,60.0,40.0,80.0,5.0
35.47155414219014,1487,286.9671936035156,328.95050048828125,-0.0011097335955128074,-3.695617914199829,0.012471924535930157,-0.0530395470559597,6.180148601531982,-0.3422369658946991,7.843970706744585e-06,6.189617345030633,22.282622442110277,0.49856334924697876,0.028330840170383453,0.0,False,1,0.0,,Broken,60.0,40.0,80.0,5.0
35.51836895640008,1488,287.2569580078125,328.93511962890625,-0.0011103057768195868,-3.512390613555908,0.012868075631558895,-0.051666244864463806,6.194308757781982,-0.3278498351573944,-2.4423598006251268e-05,6.202978840987917,22.330723827556504,0.49772223830223083,0.02799900248646736,0.0,False,1,0.0,,Broken,60.0,40.0,80.0,5.0
35.565538831753656,1489,287.5484619140625,328.9205017089844,-0.0011170959332957864,-3.3292243480682373,0.009302716702222824,-0.0513915941119194,6.170866012573242,-0.3051152229309082,-5.457878069137223e-05,6.178404538986955,22.242256340353038,0.498267263174057,0.027954090386629105,0.0,False,1,0.0,,Broken,60.0,40.0,80.0,5.0
35.605434723896906,1490,287.7947082519531,328.90875244140625,-0.0011242293985560536,-3.183441400527954,0.005839811637997627,-0.049163807183504105,6.15586519241333,-0.2933626174926758,-9.53578928601928e-05,6.1628514424413385,22.18626519278882,0.4983069896697998,0.024066854268312454,0.0,False,1,0.0,,Broken,60.0,40.0,80.0,5.0
35.640010208589956,1491,288.0082702636719,328.8990173339844,-0.0011279296595603228,-3.058197498321533,0.005190943367779255,-0.049224842339754105,6.1789140701293945,-0.2790483832359314,-7.283210288733244e-05,6.185211968197541,22.266763085511148,0.49859416484832764,0.027463223785161972,0.0,False,1,0.0,,Broken,60.0,40.0,80.0,5.0
35.67229901696555,1492,288.20867919921875,328.8898620605469,-0.0011272048577666283,-2.9626166820526123,0.008066453039646149,-0.0433044396340847,6.214818477630615,-0.28601670265197754,-0.00016599177615717053,6.221396490471259,22.39702736569653,0.4992133378982544,0.010247868485748768,0.0,False,1,0.0,,Broken,60.0,40.0,80.0,5.0
35.70748016308062,1493,288.4279479980469,328.8803405761719,-0.0011295318836346269,-2.8560798168182373,0.011174188926815987,-0.044189453125,6.228834629058838,-0.2643641531467438,-0.00013456343731377274,6.234442177110865,22.443991837599114,0.4997865855693817,0.028524186462163925,0.0,False,1,0.0,,Broken,60.0,40.0,80.0,5.0
35.74361639167182,1494,288.65350341796875,328.8713073730469,-0.0011294936994090676,-2.730865955352783,0.012041622772812843,-0.04730224609375,6.235902786254883,-0.24658171832561493,1.0280608876200859e-05,6.240776081829849,22.466793894587457,0.4997865855693817,0.028524186462163925,0.0,False,1,0.0,,Broken,60.0,40.0,80.0,5.0
35.78306058119051,1495,288.89959716796875,328.8624267578125,-0.0011280822800472379,-2.572937488555908,0.009917434304952621,-0.0524597093462944,6.222345352172852,-0.2202463299036026,0.00014543533325195312,6.226242056705997,22.41447140414159,0.4977935254573822,0.035106316208839417,0.0,False,1,0.0,,Broken,60.0,40.0,80.0,5.0
35.81716897035949,1496,289.1125183105469,328.8553161621094,-0.0011228942312300205,-2.4295654296875,0.009302716702222824,-0.0541686937212944,6.2466349601745605,-0.20636780560016632,0.00015522955800406635,6.2500428815296525,22.50015437350675,0.4996069073677063,0.030184507369995117,0.0,False,1,0.0,,Broken,60.0,40.0,80.0,5.0
35.8495771929156,1497,289.3157958984375,328.84869384765625,-0.0011169052449986339,-2.309082269668579,0.011645471677184105,-0.0505981370806694,6.279780864715576,-0.20504000782966614,1.7223357644979842e-05,6.283127335487905,22.61925840775646,0.49803781509399414,0.01917525753378868,0.0,False,1,0.0,,Broken,60.0,40.0,80.0,5.0
35.8818446889054,1498,289.51922607421875,328.8424072265625,-0.0011138916015625,-2.19818115234375,0.015122038312256336,-0.04864501953125,6.310680389404297,-0.19383879005908966,-7.153511251090094e-05,6.313656663048824,22.729163986975767,0.49713170528411865,0.02430063858628273,0.0,False,1,0.0,,Broken,60.0,40.0,80.0,5.0
35.909521284280345,1499,289.6942138671875,328.8375244140625,-0.0011125946184620261,-2.093322992324829,0.016856905072927475,-0.0510864220559597,6.325925350189209,-0.1773160845041275,8.40187021822203e-06,6.3284099527496585,22.782275829898772,0.49400609731674194,0.034969430416822433,0.0,False,1,0.0,,Broken,60.0,40.0,80.0,5.0
35.93884794856422,1500,289.879150390625,328.83306884765625,-0.001113624544814229,-1.9639590978622437,0.01423411350697279,-0.0562744066119194,6.29423189163208,-0.1518341451883316,0.00011457443179097027,6.296062954451037,22.665826636023734,0.4939616918563843,0.03866272419691086,0.0,False,1,0.0,,Broken,60.0,40.0,80.0,5.0
35.969753448618576,1501,290.0745544433594,328.8289489746094,-0.0011077880626544356,-1.8163758516311646,0.014295585453510284,-0.060638416558504105,6.3358588218688965,-0.1315261572599411,0.0002028799062827602,6.337223854485318,22.814005876147146,0.5000805258750916,0.03832833841443062,0.0,False,1,0.0,,Broken,60.0,40.0,80.0,5.0
35.999207517830655,1502,290.26141357421875,328.82537841796875,-0.0011003493564203382,-1.678131341934204,0.014999094419181347,-0.0606689378619194,6.344027042388916,-0.12417139858007431,0.00020487785513978451,6.345242130349489,22.842871669258162,0.4968813955783844,0.031209692358970642,0.0,False,1,0.0,,Broken,60.0,40.0,80.0,5.0
36.029106081230566,1503,290.45037841796875,328.822265625,-0.0011016845237463713,-1.5368345975875854,0.011228830553591251,-0.061096180230379105,6.308138370513916,-0.10474247485399246,7.994651969056576e-05,6.309007900928635,22.712428443343086,0.4989830553531647,0.0340687558054924,0.0,False,1,0.0,,Broken,60.0,40.0,80.0,5.0
36.058443260146305,1504,290.6356201171875,328.81964111328125,-0.001103210379369557,-1.398529291152954,0.008360151201486588,-0.061309814453125,6.3190531730651855,-0.09228961914777756,7.161140092648566e-05,6.319727081366396,22.751017492919026,0.5006939768791199,0.0354982390999794,0.0,False,1,0.0,,Broken,60.0,40.0,80.0,5.0
36.08589075203054,1505,290.8088073730469,328.8175354003906,-0.001104812603443861,-1.2714539766311646,0.006270113401114941,-0.0608215294778347,6.310295104980469,-0.07879764586687088,1.9388198779779486e-05,6.310787065121951,22.718833434439023,0.4981904923915863,0.02963862195611,0.0,False,1,0.0,,Broken,60.0,40.0,80.0,5.0
36.11670569400303,1506,291.004150390625,328.8157043457031,-0.0011014938354492188,-1.1257933378219604,0.008257698267698288,-0.0629272311925888,6.353246212005615,-0.057201921939849854,3.1018254958326e-05,6.353503717729253,22.87261338382531,0.49913710355758667,0.03777211159467697,0.0,False,1,0.0,,Broken,60.0,40.0,80.0,5.0
36.14968529413454,1507,291.21441650390625,328.8144836425781,-0.0010929488344118,-0.9602964520454407,0.012328490614891052,-0.0663452222943306,6.378622531890869,-0.03520940616726875,0.0001108264914364554,6.3787197084455,22.9633909504038,0.4981887936592102,0.038528796285390854,0.0,False,1,0.0,,Broken,60.0,40.0,80.0,5.0
36.18666756595485,1508,291.4505920410156,328.8137512207031,-0.0010876464657485485,-0.7775267362594604,0.013503283262252808,-0.066131591796875,6.37578821182251,-0.01915370486676693,6.12354269833304e-05,6.375816982173718,22.952941135825384,0.4993036091327667,0.03318285942077637,0.0,False,1,0.0,,Broken,60.0,40.0,80.0,5.0
36.215894046006724,1509,291.6371154785156,328.81353759765625,-0.0010886763921007514,-0.638641357421875,0.012260189279913902,-0.06454465538263321,6.384173393249512,-0.009146192111074924,-6.675720101156912e-07,6.384179944824987,22.983047801369953,0.4971192181110382,0.03306103125214577,0.0,False,1,0.0,,Broken,60.0,40.0,80.0,5.0
36.24341004784219,1510,291.8124694824219,328.81378173828125,-0.001091918908059597,-0.5045775175094604,0.010067698545753956,-0.0653381273150444,6.371494770050049,0.0105171799659729,-2.4929046048782766e-05,6.371503450243986,22.93741242087835,0.49692249298095703,0.03548010438680649,0.0,False,1,0.0,,Broken,60.0,40.0,80.0,5.0
36.27302318322472,1511,292.001220703125,328.81463623046875,-0.0010939025087282062,-0.3577575385570526,0.008360151201486588,-0.06634521484375,6.377901077270508,0.025792445987462997,2.766609213722404e-05,6.377953229875846,22.960631627553045,0.49502885341644287,0.03868289664387703,0.0,False,1,0.0,,Broken,60.0,40.0,80.0,5.0
36.3021535302978,1512,292.18646240234375,328.8160095214844,-0.0010963057866320014,-0.2077026218175888,0.005266075488179922,-0.06796262413263321,6.351266860961914,0.0464487262070179,4.920959327137098e-05,6.351436705639193,22.865172140301095,0.4971448481082916,0.037195973098278046,0.0,False,1,0.0,,Broken,60.0,40.0,80.0,5.0
36.33788294601254,1513,292.4138488769531,328.818115234375,-0.0010968017159029841,-0.033233642578125,0.004159585107117891,-0.0664062350988388,6.3629608154296875,0.060467105358839035,-5.9223175412626006e-06,6.363248117868671,22.907693224327215,0.4972943365573883,0.031186960637569427,0.0,False,1,0.0,,Broken,60.0,40.0,80.0,5.0
36.371970946667716,1514,292.63140869140625,328.8207702636719,-0.0010958098573610187,0.12899376451969147,0.005580264143645763,-0.066131591796875,6.384979724884033,0.07964208722114563,-3.6544799513649195e-05,6.385476407486966,22.987715066953076,0.4962894320487976,0.03414389491081238,0.0,False,1,0.0,,Broken,60.0,40.0,80.0,5.0
36.40346624958329,1515,292.8333435058594,328.82379150390625,-0.001091918908059597,0.27930325269699097,0.00909098144620657,-0.0667114108800888,6.421912670135498,0.09769722074270248,-8.025169336178806e-06,6.422655766102687,23.12156075796967,0.49703848361968994,0.03414389491081238,0.0,False,1,0.0,,Broken,60.0,40.0,80.0,5.0
