time_stamp,frame,x,y,z,yaw,pitch,roll,vx,vy,vz,speed_mps,speed_kmh,throttle,steer,brake,reverse,gear,collision_impulse,collision_with,lane_invasion,weather_cloud,weather_rain,weather_wetness,weather_fog
51.38507742958609,2274,262.877685546875,330.99676513671875,-0.001248855609446764,-0.1407165676355362,0.0618336983025074,0.0015479233115911484,0.9347856640815735,-0.009946360252797604,0.0005090665654279292,0.9348387171076489,3.365419381587536,0.5010776519775391,-0.01643453910946846,0.0,False,1,0.0,,,60.0,40.0,80.0,5.0
51.42013643833343,2275,262.9115905761719,330.99639892578125,-0.001261482248082757,-0.1547241359949112,0.06203177571296692,0.001598093076609075,0.9839352369308472,-0.01042539905756712,-0.00030229566618800163,0.9839905135733482,3.5423658488640535,0.5012273788452148,-0.015754710882902145,0.0,False,1,0.0,,,60.0,40.0,80.0,5.0
51.45768370258156,2276,262.9496154785156,330.9959411621094,-0.0012926101917400956,-0.1680908054113388,0.060945775359869,0.0015643767546862364,1.0311375856399536,-0.0109510263428092,-0.0006219482165761292,1.0311959233418921,3.7123053240308117,0.5009957551956177,-0.015258200466632843,0.0,False,1,0.0,,,60.0,40.0,80.0,5.0
51.48574341612402,2277,262.979248046875,330.99554443359375,-0.0013044738443568349,-0.17724604904651642,0.06005784869194031,0.0013250140473246574,1.0683907270431519,-0.010745919309556484,-0.0003086852957494557,1.068444811724131,3.8464013222068716,0.5008176565170288,-0.013204377144575119,0.0,False,1,0.0,,,60.0,40.0,80.0,5.0
51.515504018985666,2278,263.01177978515625,330.99517822265625,-0.0013299559941515326,-0.1884155124425888,0.05902649089694023,0.0010930356802418828,1.1063634157180786,-0.010756229981780052,-0.0006775569636374712,1.1064159087821515,3.9830972716157453,0.5008429288864136,-0.012361813336610794,0.0,False,1,0.0,,,60.0,40.0,80.0,5.0
51.55651269259397,2279,263.0588684082031,330.99481201171875,-0.0012813949724659324,-0.2008361667394638,0.05896501988172531,0.0009045077604241669,1.175499439239502,-0.011181146837770939,0.0009015941177494824,1.1755529603420445,4.231990657231361,0.5008884072303772,-0.011813104152679443,0.0,False,1,0.0,,,60.0,40.0,80.0,5.0
51.59602875786368,2280,263.1064147949219,330.9942932128906,-0.0013195800129324198,-0.2111816555261612,0.057885851711034775,0.0009733386687003076,1.217157006263733,-0.01190923061221838,-0.0006973266717977822,1.2172154673414048,4.381975682429058,0.5011402368545532,-0.01230325736105442,0.0,False,1,0.0,,,60.0,40.0,80.0,5.0
51.637023122631945,2281,263.1577453613281,330.99371337890625,-0.0012752532493323088,-0.22561639547348022,0.05676569789648056,0.001101351110264659,1.2751678228378296,-0.012655139900743961,0.0008490466861985624,1.27523090060081,4.590831242162916,0.5010168552398682,-0.01194693148136139,0.0,False,1,0.0,,,60.0,40.0,80.0,5.0
51.6809199169511,2282,263.2151794433594,330.9930725097656,-0.00127410888671875,-0.2435302436351776,0.055543094873428345,0.0012670040596276522,1.329512357711792,-0.01360374316573143,5.15937790623866e-05,1.3295819545249572,4.786495036289846,0.5013384819030762,-0.012102549895644188,0.0,False,1,0.0,,,60.0,40.0,80.0,5.0
51.71872538479511,2283,263.2665100097656,330.9925842285156,-0.0012982178013771772,-0.25909423828125,0.05459369719028473,0.001558269141241908,1.3756523132324219,-0.014739285223186016,-0.00046260832459665835,1.3757313500233488,4.952632860084056,0.5015263557434082,-0.012706926092505455,0.0,False,1,0.0,,,60.0,40.0,80.0,5.0
51.750631523900665,2284,263.3114929199219,330.9920654296875,-0.0012639999622479081,-0.27087393403053284,0.05466200038790703,0.0017053118208423257,1.427549958229065,-0.015655972063541412,0.0008618974243290722,1.4276360655181801,5.139489835865448,0.501602828502655,-0.012706926092505455,0.0,False,1,0.0,,,60.0,40.0,80.0,5.0
51.780039986246265,2285,263.35400390625,330.9916076660156,-0.0012990569230169058,-0.282623291015625,0.05402679368853569,0.0018048257334157825,1.4549660682678223,-0.016271449625492096,-0.0009829807095229626,1.455057382419922,5.238206576711719,0.501602828502655,-0.012706926092505455,0.0,False,1,0.0,,,60.0,40.0,80.0,5.0
51.81014055351261,2286,263.3989562988281,330.9910583496094,-0.0012537384172901511,-0.2989806830883026,0.05481909587979317,0.002343513770028949,1.5160996913909912,-0.018649019300937653,0.0012067651841789484,1.51621486486545,5.45837351351562,0.5015960931777954,-0.015283104032278061,0.0,False,1,0.0,,,60.0,40.0,80.0,5.0
51.843426365056075,2287,263.4504089355469,330.9903869628906,-0.0012463759630918503,-0.3163147270679474,0.05590509623289108,0.0025953499134629965,1.56318998336792,-0.019420789554715157,0.00012671470176428556,1.5633106240364842,5.627918246531343,0.5014956593513489,-0.014039430767297745,0.0,False,1,0.0,,,60.0,40.0,80.0,5.0
51.87498338113073,2288,263.5008239746094,330.98974609375,-0.0012307357974350452,-0.333892822265625,0.05705256760120392,0.0028479660395532846,1.6161407232284546,-0.020924383774399757,0.0003484964254312217,1.616276210479969,5.818594357727889,0.5015029907226562,-0.014809917658567429,0.0,False,1,0.0,,,60.0,40.0,80.0,5.0
51.90551963786129,2289,263.5512390136719,330.9891052246094,-0.0012154006399214268,-0.3525390625,0.05859619006514549,0.003269351553171873,1.6708391904830933,-0.022936226800084114,0.0003322124539408833,1.670996643120248,6.015587915232893,0.5012322664260864,-0.016031377017498016,0.0,False,1,0.0,,,60.0,40.0,80.0,5.0
51.937513474025764,2290,263.60565185546875,330.98828125,-0.001217155484482646,-0.37408447265625,0.05957973748445511,0.0038355623837560415,1.7174620628356934,-0.02518981695175171,-9.51576221268624e-05,1.7176467836004208,6.183528420961515,0.5011734962463379,-0.01737130805850029,0.0,False,1,0.0,,,60.0,40.0,80.0,5.0
51.971961654373445,2291,263.66558837890625,330.9873046875,-0.001240043668076396,-0.398590087890625,0.05891037732362747,0.004184057004749775,1.75491201877594,-0.026793913915753365,-0.0005294132279232144,1.7551166308099115,6.318419870915681,0.5013586282730103,-0.017406348139047623,0.0,False,1,0.0,,,60.0,40.0,80.0,5.0
52.00306746701244,2292,263.72119140625,330.9864501953125,-0.0012294386979192495,-0.421295166015625,0.05874645337462425,0.00428119208663702,1.806450366973877,-0.028174003586173058,0.00026738166343420744,1.8066700789881593,6.5040122843573736,0.5012685060501099,-0.016998425126075745,0.0,False,1,0.0,,,60.0,40.0,80.0,5.0
52.03936215455178,2293,263.7874450683594,330.98529052734375,-0.0012668228009715676,-0.44952392578125,0.05701158568263054,0.004617093596607447,1.8374472856521606,-0.030518101528286934,-0.0007522391970269382,1.8377008592083732,6.615723093150144,0.5014402866363525,-0.018691593781113625,0.0,False,1,0.0,,,60.0,40.0,80.0,5.0
52.07338942179922,2294,263.8508605957031,330.9841613769531,-0.0012688064016401768,-0.4771117866039276,0.055310867726802826,0.004744841251522303,1.8801305294036865,-0.032153960317373276,1.0385512723587453e-05,1.8804054575723121,6.769459647260324,0.5014170408248901,-0.018286094069480896,0.0,False,1,0.0,,,60.0,40.0,80.0,5.0
52.104507991694845,2295,263.9104309082031,330.9830322265625,-0.0012482833117246628,-0.5033568739891052,0.055351849645376205,0.004942517261952162,1.9337650537490845,-0.03427300974726677,0.000536851875949651,1.9340688225883464,6.962647761318047,0.5013474822044373,-0.018766596913337708,0.0,False,1,0.0,,,60.0,40.0,80.0,5.0
52.13754590007011,2296,263.9752197265625,330.9818420410156,-0.0012493133544921875,-0.5320128798484802,0.055488452315330505,0.005080662202090025,1.97711980342865,-0.0360846184194088,-3.201484651071951e-05,1.9774490683254444,7.1188166459716005,0.5015525817871094,-0.018766596913337708,0.0,False,1,0.0,,,60.0,40.0,80.0,5.0
52.16655621828977,2297,264.0328369140625,330.9807434082031,-0.0012932586250826716,-0.5575560927391052,0.05376724526286125,0.004832503851503134,1.9940752983093262,-0.036475230008363724,-0.0012121486943215132,1.994409237602967,7.179873255370681,0.5014837980270386,-0.017474936321377754,0.0,False,1,0.0,,,60.0,40.0,80.0,5.0
52.20035050215665,2298,264.1011657714844,330.97943115234375,-0.0012833023210987449,-0.5843809843063354,0.05227826535701752,0.004254557657986879,2.038896322250366,-0.03694948926568031,0.0002900028193835169,2.0392311202374045,7.3412320328546565,0.5011104345321655,-0.015936749055981636,0.0,False,1,0.0,,,60.0,40.0,80.0,5.0
52.23456026392523,2299,264.1718444824219,330.9781494140625,-0.0012803649296984076,-0.6095275282859802,0.05154060572385788,0.0035179208498448133,2.081679344177246,-0.037051018327474594,8.563994924770668e-05,2.082009048315476,7.495232573935713,0.5008813142776489,-0.014233924448490143,0.0,False,1,0.0,,,60.0,40.0,80.0,5.0
52.26559466274921,2300,264.2375183105469,330.97705078125,-0.001256065326742828,-0.63055419921875,0.05224411562085152,0.0028698581736534834,2.134742021560669,-0.037346940487623215,0.0006043910980224609,2.1350687712271275,7.686247576417659,0.5003679990768433,-0.012842897325754166,0.0,False,1,0.0,,,60.0,40.0,80.0,5.0
52.29758305253927,2301,264.3067321777344,330.97576904296875,-0.001247673062607646,-0.6517333984375,0.05317302048206329,0.002554885344579816,2.1801393032073975,-0.03842383623123169,0.00016407966904807836,2.1804778832867115,7.849720379832162,0.49979838728904724,-0.012851361185312271,0.0,False,1,0.0,,,60.0,40.0,80.0,5.0
52.33165516855661,2302,264.3818054199219,330.9745178222656,-0.0012602233327925205,-0.672760009765625,0.052988603711128235,0.002091602422297001,2.2164688110351562,-0.038436733186244965,-0.0002996444527525455,2.2168020801452775,7.980487488522999,0.4996250867843628,-0.011174764484167099,0.0,False,1,0.0,,,60.0,40.0,80.0,5.0
52.3667500220472,2303,264.4602966308594,330.97308349609375,-0.0012784575810655951,-0.6926575303077698,0.05162256583571434,0.0016277938848361373,2.2499282360076904,-0.03864135593175888,-0.0003762912529055029,2.2502600656741945,8.100936236427101,0.49944260716438293,-0.010240713134407997,0.0,False,1,0.0,,,60.0,40.0,80.0,5.0
52.39719342964236,2304,264.52978515625,330.9718017578125,-0.0012549590319395065,-0.709930419921875,0.05162256583571434,0.001634757500141859,2.30002760887146,-0.04016035050153732,0.0006324290880002081,2.300378285258736,8.28136182693145,0.49951550364494324,-0.010676514357328415,0.0,False,1,0.0,,,60.0,40.0,80.0,5.0
52.42703955399338,2305,264.5986022949219,330.9705810546875,-0.0013111113803461194,-0.7265623807907104,0.049805738031864166,0.0018860525451600552,2.3107542991638184,-0.04128429666161537,-0.0015111827524378896,2.3111235596411164,8.32004481470802,0.4991964101791382,-0.011214882135391235,0.0,False,1,0.0,,,60.0,40.0,80.0,5.0
52.457872032769956,2306,264.67083740234375,330.96929931640625,-0.001277389470487833,-0.7451781034469604,0.04928664118051529,0.0021394374780356884,2.3617923259735107,-0.042846985161304474,0.000918111763894558,2.3621811315168,8.50385207346048,0.4990803301334381,-0.010873528197407722,0.0,False,1,0.0,,,60.0,40.0,80.0,5.0
52.48749370092992,2307,264.74102783203125,330.96795654296875,-0.0013212584890425205,-0.764434814453125,0.047661058604717255,0.0023693826515227556,2.3751778602600098,-0.04393988102674484,-0.0011705112410709262,2.375584549350018,8.552104377660065,0.4989418685436249,-0.011174101382493973,0.0,False,1,0.0,,,60.0,40.0,80.0,5.0
52.520923819043674,2308,264.8213806152344,330.9664306640625,-0.0012991714756935835,-0.785186767578125,0.04669800028204918,0.0026376720052212477,2.42000412940979,-0.04561716318130493,0.0005788803100585938,2.4204341030153165,8.71356277085514,0.499173641204834,-0.011012015864253044,0.0,False,1,0.0,,,60.0,40.0,80.0,5.0
52.55275894294027,2309,264.8993835449219,330.9648742675781,-0.0012730407761409879,-0.806121826171875,0.047340039163827896,0.003082011826336384,2.4683594703674316,-0.04805440455675125,0.0006505250930786133,2.4688272770554014,8.887778197399445,0.4990294873714447,-0.011826511472463608,0.0,False,1,0.0,,,60.0,40.0,80.0,5.0
52.5816977188224,2310,264.9711608886719,330.96343994140625,-0.0013077163603156805,-0.824951171875,0.04667751118540764,0.0033760215155780315,2.486156940460205,-0.04937185347080231,-0.000978774973191321,2.4866473152648805,8.95193033495357,0.498512864112854,-0.011854009702801704,0.0,False,1,0.0,,,60.0,40.0,80.0,5.0
52.61313288437668,2311,265.05035400390625,330.9617919921875,-0.0012744140112772584,-0.84814453125,0.04712147265672684,0.003990582190454006,2.538007974624634,-0.05248779058456421,0.000859708758071065,2.5385508043995957,9.138782895838546,0.4986281991004944,-0.013059142976999283,0.0,False,1,0.0,,,60.0,40.0,80.0,5.0
52.643069738172926,2312,265.1266174316406,330.9601135253906,-0.001319084083661437,-0.872100830078125,0.04623354971408844,0.0043723429553210735,2.5539321899414062,-0.05394092574715614,-0.001209630980156362,2.554502048833877,9.196207375801958,0.49833962321281433,-0.012931380420923233,0.0,False,1,0.0,,,60.0,40.0,80.0,5.0
52.67339054273907,2313,265.2051696777344,330.95843505859375,-0.0012733840849250555,-0.8935851454734802,0.04706000164151192,0.004124286584556103,2.6113805770874023,-0.054689399898052216,0.0012052964884787798,2.6119534646678084,9.40303247280411,0.49823299050331116,-0.01087123528122902,0.0,False,1,0.0,,,60.0,40.0,80.0,5.0
52.709808116429485,2314,265.3011169433594,330.95635986328125,-0.001290550222620368,-0.9172974228858948,0.047565434128046036,0.003570274915546179,2.6471364498138428,-0.055386364459991455,-0.00039979934808798134,2.6477158444857047,9.531777040148537,0.4986141324043274,-0.01015767827630043,0.0,False,1,0.0,,,60.0,40.0,80.0,5.0
52.748008118593134,2315,265.4029846191406,330.9541320800781,-0.0013185882708057761,-0.9405516982078552,0.0464521124958992,0.0030613543931394815,2.6800737380981445,-0.05607517063617706,-0.0005318450857885182,2.6806603569390197,9.650377284980472,0.4983416199684143,-0.009363429620862007,0.0,False,1,0.0,,,60.0,40.0,80.0,5.0
52.78586456703488,2316,265.5053405761719,330.9519348144531,-0.0013295364333316684,-0.9630432724952698,0.045372944325208664,0.0028503485955297947,2.719835042953491,-0.057582106441259384,-0.00017170906357932836,2.7204445205414562,9.793600273949243,0.498359739780426,-0.009326376020908356,0.0,False,1,0.0,,,60.0,40.0,80.0,5.0
52.82020038517658,2317,265.5998840332031,330.9500732421875,-0.0013031386770308018,-0.9751889705657959,0.04619256779551506,0.0008662372711114585,2.7745561599731445,-0.053568996489048004,0.0005771255237050354,2.775073306293662,9.990263902657183,0.49819415807724,-0.0027693528681993484,0.0,False,1,0.0,,,60.0,40.0,80.0,5.0
52.853689448558725,2318,265.6939697265625,330.9481201171875,-0.0012802504934370518,-0.9894104599952698,0.04826894402503967,0.001208915957249701,2.8297157287597656,-0.05833778902888298,0.0004905128153041005,2.830317057119575,10.189141405630469,0.49811193346977234,-0.00823231041431427,0.0,False,1,0.0,,,60.0,40.0,80.0,5.0
52.8810988139594,2319,265.77215576171875,330.94647216796875,-0.0012893294915556908,-1.002105712890625,0.04949154704809189,0.0016746189212426543,2.863548517227173,-0.05970592051744461,-0.00032459257636219263,2.864170911942777,10.311015282993997,0.4980367124080658,-0.007421927526593208,0.0,False,1,0.0,,,60.0,40.0,80.0,5.0
52.90946671704296,2320,265.85400390625,330.9446716308594,-0.0013048171531409025,-1.0165709257125854,0.049867209047079086,0.0019137754570692778,2.89552903175354,-0.06078276410698891,-0.0004745292535517365,2.8961669743504244,10.426201107661528,0.4980292320251465,-0.0070575326681137085,0.0,False,1,0.0,,,60.0,40.0,80.0,5.0
52.940966028370894,2321,265.94647216796875,330.9427185058594,-0.001265678321942687,-1.031311273574829,0.05171819031238556,0.0020394367165863514,2.957698345184326,-0.0625024139881134,0.0009483766625635326,2.9583588275053345,10.650091779019204,0.49733152985572815,-0.006721185520291328,0.0,False,1,0.0,,,60.0,40.0,80.0,5.0
52.97063430363778,2322,266.0348205566406,330.9408264160156,-0.001302757184021175,-1.04595947265625,0.052510492503643036,0.002584029221907258,2.9870946407318115,-0.06502250581979752,-0.001071557984687388,2.98780244781818,10.75608881214545,0.49687543511390686,-0.008275290951132774,0.0,False,1,0.0,,,60.0,40.0,80.0,5.0
53.001577306189574,2323,266.12847900390625,330.93865966796875,-0.0012593460269272327,-1.065093994140625,0.05419754981994629,0.003555802395567298,3.049494504928589,-0.06904632598161697,0.001095628715120256,3.0502762712783085,10.98099457660191,0.49667227268218994,-0.009543001651763916,0.0,False,1,0.0,,,60.0,40.0,80.0,5.0
53.03524695674423,2324,266.23236083984375,330.936279296875,-0.0012501906603574753,-1.0843507051467896,0.05648566037416458,0.0035788812674582005,3.105020046234131,-0.06974185258150101,0.0001280689175473526,3.105803185959946,11.180891469455807,0.4968380630016327,-0.007308930158615112,0.0,False,1,0.0,,,60.0,40.0,80.0,5.0
53.066672369488515,2325,266.3310241699219,330.93408203125,-0.0012297057546675205,-1.1019898653030396,0.05839128419756889,0.0035669964272528887,3.160477638244629,-0.07191326469182968,0.00044252871884964406,3.161295717789567,11.38066458404244,0.4971742630004883,-0.007700635120272636,0.0,False,1,0.0,,,60.0,40.0,80.0,5.0
53.10178503359202,2326,266.4431457519531,330.9315185546875,-0.0012468338245525956,-1.121551513671875,0.05957973748445511,0.0035798794124275446,3.210477590560913,-0.07390021532773972,-0.00044797896407544613,3.211328043349736,11.56078095605905,0.4971884787082672,-0.0075352489948272705,0.0,False,1,0.0,,,60.0,40.0,80.0,5.0
53.13253720442299,2327,266.54290771484375,330.9291687011719,-0.0012262343661859632,-1.138214111328125,0.060501813888549805,0.0034686275757849216,3.2644717693328857,-0.0754048153758049,0.0005019521340727806,3.265342565629093,11.755233236264734,0.4971413314342499,-0.0068946704268455505,0.0,False,1,0.0,,,60.0,40.0,80.0,5.0
53.16317092964891,2328,266.6439514160156,330.9267883300781,-0.001213722163811326,-1.1537781953811646,0.06170392408967018,0.003221220104023814,3.3177666664123535,-0.07674887776374817,0.0002686786465346813,3.3186542626768385,11.947155345636618,0.4974020719528198,-0.0063311867415905,0.0,False,1,0.0,,,60.0,40.0,80.0,5.0
53.19803130219225,2329,266.76080322265625,330.92413330078125,-0.0012398146791383624,-1.1673280000686646,0.06246207654476166,0.0022233447525650263,3.370368480682373,-0.07613113522529602,-0.0006509399390779436,3.3712282730557868,12.136421783000833,0.49789300560951233,-0.004090389236807823,0.0,False,1,0.0,,,60.0,40.0,80.0,5.0
53.228032050305046,2330,266.86285400390625,330.9217834472656,-0.0012222671648487449,-1.177245855331421,0.06291969865560532,0.0016156657366082072,3.4213507175445557,-0.07692644745111465,0.0004435872833710164,3.4222154531136364,12.319975631209092,0.4979003071784973,-0.003883522003889084,0.0,False,1,0.0,,,60.0,40.0,80.0,5.0
53.26093643682543,2331,266.9765625,330.9192199707031,-0.001231613103300333,-1.1876220703125,0.06356856971979141,0.0013437068555504084,3.476369619369507,-0.07840637862682343,-0.00027309416327625513,3.4772537102237857,12.518113356805628,0.49746811389923096,-0.0039056241512298584,0.0,False,1,0.0,,,60.0,40.0,80.0,5.0
53.290606053196825,2332,267.08050537109375,330.9168701171875,-0.001287498394958675,-1.1972655057907104,0.06330902129411697,0.0013106573605909944,3.513986349105835,-0.0796351209282875,-0.0015743063995614648,3.514888944565398,12.653600200435433,0.49740540981292725,-0.0039056241512298584,0.0,False,1,0.0,,,60.0,40.0,80.0,5.0
53.32134216430131,2333,267.1895446777344,330.91436767578125,-0.0012567519443109632,-1.2071533203125,0.0632338896393776,0.0014676155988126993,3.568152904510498,-0.08156205713748932,0.0008339452324435115,3.569085066875803,12.848706240752891,0.4975135028362274,-0.0040521882474422455,0.0,False,1,0.0,,,60.0,40.0,80.0,5.0
53.352132562198676,2334,267.30047607421875,330.911865234375,-0.0012374495854601264,-1.215575933456421,0.06387592852115631,0.0012075367849320173,3.623161792755127,-0.08202152699232101,0.00047305107000283897,3.6240901107930545,13.046724398854996,0.49780187010765076,-0.0027630552649497986,0.0,False,1,0.0,,,60.0,40.0,80.0,5.0
53.38365499640349,2335,267.4158020019531,330.90936279296875,-0.001230964669957757,-1.2204588651657104,0.06477068364620209,0.0002981970028486103,3.678896427154541,-0.08117973804473877,0.00010830879182321951,3.6797919891388227,13.247251160899761,0.49786481261253357,-0.000897187739610672,0.0,False,1,0.0,,,60.0,40.0,80.0,5.0
53.420964493998326,2336,267.5545959472656,330.90631103515625,-0.0012752532493323088,-1.2242738008499146,0.06584302335977554,-0.0002746582613326609,3.7447361946105957,-0.0822373479604721,-0.000948410015553236,3.745639204209046,13.484301135152565,0.49769356846809387,-0.00110713392496109,0.0,False,1,0.0,,,60.0,40.0,80.0,5.0
53.46055312047247,2337,267.70458984375,330.9031066894531,-0.0013197326334193349,-1.222930908203125,0.06682656705379486,-0.0014953612117096782,3.814239025115967,-0.08068133145570755,-0.0008362674270756543,3.8150923340472738,13.734332402570185,0.49791795015335083,0.0011784844100475311,0.0,False,1,0.0,,,60.0,40.0,80.0,5.0
53.49172895180527,2338,267.8245849609375,330.9006042480469,-0.00127239222638309,-1.2190552949905396,0.06750275939702988,-0.0023193359375,3.8699865341186523,-0.08010309934616089,0.0012451505754143,3.8708156545080414,13.934936356228949,0.4984786808490753,0.0019106902182102203,0.0,False,1,0.0,,,60.0,40.0,80.0,5.0
53.526214608573355,2339,267.9593811035156,330.8977966308594,-0.001264610211364925,-1.2134093046188354,0.06823358684778214,-0.0028076169546693563,3.9316723346710205,-0.08039920032024384,0.00016957282787188888,3.932494298455441,14.156979474439588,0.4984786808490753,0.0019106902182102203,0.0,False,1,0.0,,,60.0,40.0,80.0,5.0
53.558358417474665,2340,268.0869140625,330.8951110839844,-0.0012433624360710382,-1.2142027616500854,0.06881415098905563,-0.00128173828125,3.988586664199829,-0.08592894673347473,0.0004953909083269536,3.9895122016521767,14.362243925947837,0.499010294675827,-0.002190621569752693,0.0,False,1,0.0,,,60.0,40.0,80.0,5.0
53.59268798085395,2341,268.22515869140625,330.89215087890625,-0.0012483977479860187,-1.2189942598342896,0.06925128400325775,0.00011999873822787777,4.0487213134765625,-0.08867093175649643,-0.00014577865658793598,4.049692189486673,14.578891882152023,0.4973171651363373,-0.0019188746809959412,0.0,False,1,0.0,,,60.0,40.0,80.0,5.0
53.62447518634144,2342,268.3549499511719,330.8892822265625,-0.0012335204519331455,-1.2227784395217896,0.06946302205324173,0.0004569602897390723,4.1036376953125,-0.08946271985769272,0.0003686666314024478,4.104612776931474,14.776605996953307,0.4975196123123169,-0.0009303390979766846,0.0,False,1,0.0,,,60.0,40.0,80.0,5.0
53.65812558459584,2343,268.4942626953125,330.88629150390625,-0.0012390518095344305,-1.225738525390625,0.06950400024652481,0.0004802951298188418,4.160937786102295,-0.09064444154500961,-0.0001367187505820766,4.16192499851798,14.98292999466473,0.4976719915866852,-0.000834934413433075,0.0,False,1,0.0,,,60.0,40.0,80.0,5.0
53.692704645567574,2344,268.6393737792969,330.8832092285156,-0.0012503814650699496,-1.2244566679000854,0.06936056911945343,-0.0005187987117096782,4.2190070152282715,-0.0891042947769165,-0.0002518463006708771,4.219947847227453,15.191812250018831,0.497869610786438,0.0014019571244716644,0.0,False,1,0.0,,,60.0,40.0,80.0,5.0
53.72219418140594,2345,268.7647705078125,330.880615234375,-0.001291465712711215,-1.221099615097046,0.06910785287618637,-0.0012207028921693563,4.267817497253418,-0.08910701423883438,-0.0011393165914341807,4.268747772812453,15.367491982124832,0.49801769852638245,0.0014123506844043732,0.0,False,1,0.0,,,60.0,40.0,80.0,5.0
53.75374076294247,2346,268.90045166015625,330.8778076171875,-0.0012577056186273694,-1.21685791015625,0.06875268369913101,-0.0016174314077943563,4.319337368011475,-0.08949843049049377,0.0009022473823279142,4.320264584699749,15.552952504919096,0.4980100989341736,0.0014123506844043732,0.0,False,1,0.0,,,60.0,40.0,80.0,5.0
53.78318700159434,2347,269.028564453125,330.8751220703125,-0.001294212299399078,-1.2141722440719604,0.06830871850252151,-0.0014038084773346782,4.366804599761963,-0.09122943878173828,-0.0010152625618502498,4.367757577265563,15.723927278156026,0.4991667568683624,0.0003969706594944,0.0,False,1,0.0,,,60.0,40.0,80.0,5.0
53.811902280547656,2348,269.15484619140625,330.8725280761719,-0.0013078307965770364,-1.2107847929000854,0.06783060729503632,-0.0015258786734193563,4.412655830383301,-0.09098581969738007,-0.00035227774060331285,4.41359377615355,15.88893759415278,0.49984681606292725,0.0015698634088039398,0.0,False,1,0.0,,,60.0,40.0,80.0,5.0
53.84578334877733,2349,269.30548095703125,330.8694152832031,-0.0012794876238331199,-1.205718755722046,0.06722954660654068,-0.0017700194148346782,4.466088771820068,-0.09132014214992523,0.0007184028509072959,4.467022364197679,16.081280511111647,0.4992086887359619,0.0015698634088039398,0.0,False,1,0.0,,,60.0,40.0,80.0,5.0
53.883246265002526,2350,269.47418212890625,330.8658447265625,-0.0012931441888213158,-1.2053831815719604,0.06651237607002258,-0.0005493163480423391,4.524115085601807,-0.09573360532522202,-0.00026709557278081775,4.525127876900105,16.290460356840377,0.4985199272632599,-0.0011350661516189575,0.0,False,1,0.0,,,60.0,40.0,80.0,5.0
53.9130617097253,2351,269.6099548339844,330.8629150390625,-0.0013174819760024548,-1.209045171737671,0.06588400155305862,0.0006098886369727552,4.569573879241943,-0.09872957319021225,-0.0006462096935138106,4.570640369145176,16.454305328922633,0.49884721636772156,-0.0019493214786052704,0.0,False,1,0.0,,,60.0,40.0,80.0,5.0
53.94604216667358,2352,269.7616882324219,330.8596496582031,-0.0012769317254424095,-1.211273193359375,0.0651736631989479,0.0006211341824382544,4.619245529174805,-0.09835543483495712,0.0010188102023676038,4.620292640984684,16.63305350754486,0.4991509020328522,6.92419707775116e-05,0.0,False,1,0.0,,,60.0,40.0,80.0,5.0
53.9845586247975,2353,269.9409484863281,330.8556213378906,-0.0012991714756935835,-1.2208861112594604,0.06426524370908737,0.0024033254012465477,4.6761579513549805,-0.10509202629327774,-0.0003824329178314656,4.677338737601305,16.8384194553647,0.49897897243499756,-0.004036063328385353,0.0,False,1,0.0,,,60.0,40.0,80.0,5.0
54.01769645663444,2354,270.0968933105469,330.8521728515625,-0.001265296945348382,-1.2295531034469604,0.06349343806505203,0.002708743792027235,4.724440574645996,-0.1055443286895752,0.0008572196820750833,4.725619439132346,17.012229980876445,0.49865248799324036,-0.0018366314470767975,0.0,False,1,0.0,,,60.0,40.0,80.0,5.0
54.0461013779277,2355,270.2319030761719,330.84912109375,-0.00128173828125,-1.2350462675094604,0.0627899244427681,0.0024193122517317533,4.7652082443237305,-0.10609682649374008,-0.00046573637519031763,4.766389237701141,17.159001255724107,0.4986017644405365,-0.0014072023332118988,0.0,False,1,0.0,,,60.0,40.0,80.0,5.0
54.076922274776734,2356,270.3796081542969,330.8458557128906,-0.001242408761754632,-1.23907470703125,0.06203177571296692,0.0018277009949088097,4.80882453918457,-0.10626457631587982,0.0010502099758014083,4.809998618688396,17.315995027278227,0.49846136569976807,-0.0007135160267353058,0.0,False,1,0.0,,,60.0,40.0,80.0,5.0
54.10629639553372,2357,270.5216369628906,330.8426513671875,-0.001280555734410882,-1.2432861328125,0.06126679480075836,0.0017739377217367291,4.849763870239258,-0.10817350447177887,-0.0010818004375323653,4.850970240523019,17.463492865882866,0.49880263209342957,-0.0016789473593235016,0.0,False,1,0.0,,,60.0,40.0,80.0,5.0
54.139747382723726,2358,270.6847839355469,330.83892822265625,-0.0012600708287209272,-1.253173828125,0.060426678508520126,0.0029234071262180805,4.895630836486816,-0.11308854818344116,0.0005313396104611456,4.896936857793107,17.628972688055185,0.49845385551452637,-0.004005888476967812,0.0,False,1,0.0,,,60.0,40.0,80.0,5.0
54.178296258323826,2359,270.8747863769531,330.8344421386719,-0.0012924575712531805,-1.2686158418655396,0.05942264199256897,0.004077771678566933,4.947680473327637,-0.11675385385751724,-0.0006029319483786821,4.949057879239755,17.816608365263118,0.4990383982658386,-0.004005888476967812,0.0,False,1,0.0,,,60.0,40.0,80.0,5.0
54.20580059441272,2360,271.0115051269531,330.8310852050781,-0.0012910079676657915,-1.284088134765625,0.05871913209557533,0.005480898078531027,4.984196186065674,-0.12209410220384598,7.837295561330393e-05,4.985691386069428,17.948488989849942,0.4988323450088501,-0.00659186951816082,0.0,False,1,0.0,,,60.0,40.0,80.0,5.0
54.23700023966376,2361,271.1678466796875,330.82733154296875,-0.0011877822689712048,-1.2981873750686646,0.057892680168151855,0.005035167094320059,5.025259494781494,-0.12078322470188141,0.0047864243388175964,5.026713089795249,18.096167123262894,0.49872198700904846,-0.0024020466953516006,0.0,False,1,0.0,,,60.0,40.0,80.0,5.0
54.269500119262375,2362,271.3320007324219,330.8233642578125,-0.0010833740234375,-1.31201171875,0.05699792504310608,0.004982596263289452,5.067172527313232,-0.12395168840885162,0.0024461315479129553,5.068688925765412,18.24728013275548,0.49791285395622253,-0.004141107201576233,0.0,False,1,0.0,,,60.0,40.0,80.0,5.0
54.30467256682459,2363,271.5111083984375,330.81884765625,-0.0010330199729651213,-1.328582763671875,0.055508945137262344,0.0055562821216881275,5.099202632904053,-0.12724073231220245,0.0009911346714943647,5.100790005256334,18.362844018922804,0.4981745481491089,-0.004856441169977188,0.0,False,1,0.0,,,60.0,40.0,80.0,5.0
54.351536349975504,2364,271.74755859375,330.8127746582031,-0.0010390090756118298,-1.352203369140625,0.03826271742582321,0.005761530250310898,5.002140522003174,-0.12740498781204224,1.680374043644406e-05,5.003762767464894,18.01354596287362,0.49858540296554565,-0.004856441169977188,0.0,False,1,0.0,,,60.0,40.0,80.0,5.0
54.38787638919894,2365,271.9294128417969,330.8082275390625,-0.0011006927816197276,-1.3590699434280396,0.026924604550004005,0.004409038461744785,5.036716461181641,-0.1259850710630417,0.0004916191101074219,5.038291892115643,18.137850811616314,0.4975535273551941,-0.0018669702112674713,0.0,False,1,0.0,,,60.0,40.0,80.0,5.0
54.419280273490585,2366,272.0890808105469,330.8041687011719,-0.0010916900355368853,-1.367706298828125,0.029574718326330185,0.003817066317424178,5.097346782684326,-0.12834575772285461,3.1342504371423274e-05,5.09896233144059,18.356264393186123,0.49725374579429626,-0.003268558531999588,0.0,False,1,0.0,,,60.0,40.0,80.0,5.0
54.45351946877781,2367,272.2624206542969,330.7998046875,-0.001103095943108201,-1.378997802734375,0.024445245042443275,0.0035236994735896587,5.056471347808838,-0.1279963254928589,-0.0002034664066741243,5.058091101586643,18.209127965711914,0.4974876046180725,-0.003268558531999588,0.0,False,1,0.0,,,60.0,40.0,80.0,5.0
54.484619520255364,2368,272.41900634765625,330.7957458496094,-0.0011197662679478526,-1.3908690214157104,0.01783362217247486,0.0036707192193716764,5.039059638977051,-0.12904947996139526,-0.0002864933048840612,5.040711844127201,18.146562638857922,0.49791672825813293,-0.003945326432585716,0.0,False,1,0.0,,,60.0,40.0,80.0,5.0
54.51486666465644,2369,272.5710144042969,330.7918395996094,-0.0011358641786500812,-1.4052734375,0.012635849416255951,0.004399101249873638,5.031191825866699,-0.1315620243549347,-0.00030399320530705154,5.032911666951063,18.118482001023825,0.49763476848602295,-0.005477294325828552,0.0,False,1,0.0,,,60.0,40.0,80.0,5.0
54.546069467091,2370,272.7275390625,330.7877197265625,-0.0011502074776217341,-1.419677734375,0.008448943495750427,0.004324214532971382,5.023394584655762,-0.13145780563354492,-0.0002990627253893763,5.025114366584042,18.09041171970255,0.4977641999721527,-0.00325821153819561,0.0,False,1,0.0,,,60.0,40.0,80.0,5.0
54.58341156470124,2371,272.9142761230469,330.78289794921875,-0.0012179565383121371,-1.4340211153030396,0.003954679239541292,0.003709691809490323,5.025346755981445,-0.13156092166900635,-0.00566830625757575,5.027071754377439,18.097458315758782,0.4971078336238861,-0.0024597160518169403,0.0,False,1,0.0,,,60.0,40.0,80.0,5.0
54.619258759194054,2372,273.0982971191406,330.7781066894531,-0.0011816787300631404,-1.441741943359375,0.019363585859537125,0.002295858459547162,5.182124137878418,-0.1334879994392395,0.0002936267701443285,5.183843141202587,18.661835308329312,0.49759647250175476,-0.0007586590945720673,0.0,False,1,0.0,,,60.0,40.0,80.0,5.0
54.65133714827243,2373,273.26531982421875,330.7738952636719,-0.001164398156106472,-1.443176031112671,0.029383473098278046,0.0009517217404209077,5.201145648956299,-0.13211789727210999,4.920482388115488e-05,5.202823387628851,18.730164195463864,0.49702802300453186,0.0006496831774711609,0.0,False,1,0.0,,,60.0,40.0,80.0,5.0
54.695801091962494,2374,273.4948425292969,330.7680358886719,-0.0011727905366569757,-1.44415283203125,0.02348218858242035,0.00015944648475851864,5.137883186340332,-0.12998072803020477,-5.728721589548513e-05,5.13952708227321,18.502297496183555,0.49620726704597473,0.0001007765531539917,0.0,False,1,0.0,,,60.0,40.0,80.0,5.0
54.73365368100349,2375,273.6889343261719,330.7632751464844,-0.001187133719213307,-1.4384154081344604,0.014425358735024929,-0.0016784666804596782,5.102243423461914,-0.12465359270572662,-5.1660535973496735e-05,5.103765910884198,18.373557279183114,0.4968266189098358,0.0038183294236660004,0.0,False,1,0.0,,,60.0,40.0,80.0,5.0
54.764894071617164,2376,273.84869384765625,330.7593688964844,-0.0011945342412218451,-1.4318848848342896,0.009685208089649677,-0.0021362302359193563,5.111574172973633,-0.12488145381212234,-4.3063162593171e-05,5.1130994421360265,18.407157991689697,0.4983735978603363,0.0013456903398036957,0.0,False,1,0.0,,,60.0,40.0,80.0,5.0
54.79597362095956,2377,274.00799560546875,330.7554626464844,-0.00119781494140625,-1.4256591796875,0.008298679254949093,-0.00225830078125,5.123816967010498,-0.12444113194942474,-5.244731801212765e-05,5.1253278831208675,18.451180379235122,0.498054176568985,0.0017739459872245789,0.0,False,1,0.0,,,60.0,40.0,80.0,5.0
54.826831426122226,2378,274.1666564941406,330.7516784667969,-0.0011988830519840121,-1.4187620878219604,0.008694830350577831,-0.0025024411734193563,5.1395392417907715,-0.12365855276584625,-5.127906842972152e-05,5.141026654104114,18.50769595477481,0.4940152168273926,0.002266429364681244,0.0,False,1,0.0,,,60.0,40.0,80.0,5.0
54.85991780052427,2379,274.33709716796875,330.7476501464844,-0.0011997985420748591,-1.407684326171875,0.009036339819431305,-0.0036010739859193563,5.142316818237305,-0.12039549648761749,-4.024505687993951e-05,5.143726016840361,18.5174136606253,0.49276670813560486,0.0044821202754974365,0.0,False,1,0.0,,,60.0,40.0,80.0,5.0
54.89099493215326,2380,274.4975280761719,330.7439270019531,-0.0011992263607680798,-1.394317626953125,0.009733019396662712,-0.004486083518713713,5.161410808563232,-0.11854932457208633,-6.523132014990551e-06,5.162772072942249,18.585979462592096,0.4950852692127228,0.0044821202754974365,0.0,False,1,0.0,,,60.0,40.0,80.0,5.0
54.9207071341807,2381,274.651123046875,330.7403564453125,-0.001199645921587944,-1.3851011991500854,0.009774000383913517,-0.003540038364008069,5.172389030456543,-0.12132332473993301,-2.725601189013105e-05,5.173811712099313,18.625722163557526,0.49469104409217834,9.423121809959412e-05,0.0,False,1,0.0,,,60.0,40.0,80.0,5.0
54.954882984631695,2382,274.828125,330.7361145019531,-0.0012009430211037397,-1.38116455078125,0.010723396204411983,-0.0017700191820040345,5.193723678588867,-0.12424421310424805,-9.671210864325985e-05,5.195209551440423,18.702754385185525,0.4947338402271271,-0.0009453706443309784,0.0,False,1,0.0,,,60.0,40.0,80.0,5.0
55.000005693756975,2383,275.0616455078125,330.73040771484375,-0.0012086868518963456,-1.384033203125,0.008442113175988197,0.0002625064516905695,5.163628578186035,-0.12651757895946503,-0.00011148452176712453,5.165178293502955,18.59464185661064,0.49433425068855286,-0.0020009931176900864,0.0,False,1,0.0,,,60.0,40.0,80.0,5.0
55.03137354331557,2384,275.22442626953125,330.7264404296875,-0.001210021902807057,-1.387786865234375,0.008920226246118546,0.0007649394101463258,5.192190647125244,-0.12745513021945953,-4.338264261605218e-05,5.193754762038363,18.697517143338107,0.49502450227737427,-0.0009279027581214905,0.0,False,1,0.0,,,60.0,40.0,80.0,5.0
55.06684812682215,2385,275.4090881347656,330.7220153808594,-0.0012104033958166838,-1.3867491483688354,0.009808151051402092,-0.0004272460355423391,5.193472862243652,-0.12412701547145844,-4.815101419808343e-05,5.194956004544181,18.701841616359054,0.49608081579208374,0.002425532788038254,0.0,False,1,0.0,,,60.0,40.0,80.0,5.0
55.11149791034404,2386,275.6417541503906,330.7165832519531,-0.0012107848888263106,-1.37890625,0.009814981371164322,-0.0018310546875,5.22313117980957,-0.12266179174184799,1.2102126675017644e-05,5.224571296938984,18.80845666898034,0.4956020414829254,0.002425532788038254,0.0,False,1,0.0,,,60.0,40.0,80.0,5.0
55.14603592234198,2387,275.8220520019531,330.7122497558594,-0.001210441580042243,-1.379547119140625,0.01012234017252922,1.426647122571012e-05,5.236369609832764,-0.127902090549469,-3.318786548334174e-05,5.237931427257185,18.856553138125864,0.4959767162799835,-0.003531571477651596,0.0,False,1,0.0,,,60.0,40.0,80.0,5.0
55.190164165222086,2388,276.0528259277344,330.7063903808594,-0.0012106704525649548,-1.3931884765625,0.009903773665428162,0.0029697339050471783,5.225525856018066,-0.13317321240901947,3.85475141229108e-05,5.227222549107948,18.818001176788613,0.4963606894016266,-0.004822073504328728,0.0,False,1,0.0,,,60.0,40.0,80.0,5.0
55.23972238006536,2389,276.31231689453125,330.6994934082031,-0.0012077712453901768,-1.4252623319625854,0.008824603632092476,0.006695704534649849,5.2451677322387695,-0.14149712026119232,0.00011887549771927297,5.247075946514629,18.889473407452666,0.49640411138534546,-0.008258726447820663,0.0,False,1,0.0,,,60.0,40.0,80.0,5.0
55.27803337352816,2390,276.5127258300781,330.6936340332031,-0.00120372767560184,-1.4696654081344604,0.007349282968789339,0.0114334337413311,5.246257305145264,-0.15338359773159027,0.00018592833657748997,5.2484990496724375,18.894596578820774,0.4972340762615204,-0.014611780643463135,0.0,False,1,0.0,,,60.0,40.0,80.0,5.0
55.3156223759288,2391,276.7096252441406,330.6876220703125,-0.0011970519553869963,-1.5223389863967896,0.006912150885909796,0.013940076343715191,5.253926753997803,-0.16006159782409668,0.00019010543473996222,5.256364341216462,18.922911628379264,0.4956774413585663,-0.012714531272649765,0.0,False,1,0.0,,,60.0,40.0,80.0,5.0
55.34862831386272,2392,276.8837890625,330.6820983886719,-0.0011866759741678834,-1.570709228515625,0.011119547300040722,0.015171770006418228,5.30067253112793,-0.16680799424648285,0.00013006209337618202,5.303296541408453,19.09186754907043,0.49556735157966614,-0.012421227991580963,0.0,False,1,0.0,,,60.0,40.0,80.0,5.0
55.377389935427345,2393,277.03582763671875,330.67724609375,-0.0011830901494249701,-1.6087646484375,0.011898188851773739,0.014412200078368187,5.2705864906311035,-0.16718395054340363,6.107330409577116e-05,5.2732373768181855,18.983654556545467,0.49646589159965515,-0.008161738514900208,0.0,False,1,0.0,,,60.0,40.0,80.0,5.0
55.413040594779886,2394,277.2247314453125,330.6712951660156,-0.0011819076025858521,-1.6456910371780396,0.0128066036850214,0.011876815930008888,5.29255485534668,-0.16644731163978577,-3.986358569818549e-05,5.295171536975448,19.062617533111613,0.49736344814300537,-0.0053015295416116714,0.0,False,1,0.0,,,60.0,40.0,80.0,5.0
55.44732426630799,2395,277.4071960449219,330.6656494140625,-0.00118255615234375,-1.6708680391311646,0.014520981349050999,0.009184218943119049,5.320476531982422,-0.16532523930072784,-0.00011154174717376009,5.3230445211896456,19.162960276282725,0.49665355682373047,-0.0030464064329862595,0.0,False,1,0.0,,,60.0,40.0,80.0,5.0
55.494170529418625,2396,277.657470703125,330.6580505371094,-0.0011881255777552724,-1.6864930391311646,0.016003131866455078,0.004594057332724333,5.356715202331543,-0.16092950105667114,-0.00017760276386979967,5.359132028112664,19.29287530120559,0.4964660108089447,0.0007196888327598572,0.0,False,1,0.0,,,60.0,40.0,80.0,5.0
55.53081892582122,2397,277.8536071777344,330.6522521972656,-0.0011949539184570312,-1.689789056777954,0.01579822599887848,0.0024182158522307873,5.3695783615112305,-0.15949568152427673,-0.00017552376084495336,5.371946638197658,19.339007897511568,0.4968375861644745,0.000646200031042099,0.0,False,1,0.0,,,60.0,40.0,80.0,5.0
55.571808000677265,2398,278.0746154785156,330.64581298828125,-0.0011964415898546576,-1.6867371797561646,0.019267963245511055,0.0003901500895153731,5.402946472167969,-0.15752531588077545,-0.00013617514923680574,5.40524234653723,19.45887244753403,0.49643078446388245,0.0019239969551563263,0.0,False,1,0.0,,,60.0,40.0,80.0,5.0
55.6150956019992,2399,278.3099670410156,330.6391296386719,-0.0011954116635024548,-1.6741639375686646,0.02305188775062561,-0.0021362307015806437,5.45391845703125,-0.15434789657592773,-3.630638093454763e-05,5.4561020711164945,19.64196745601938,0.49733754992485046,0.004322852939367294,0.0,False,1,0.0,,,60.0,40.0,80.0,5.0
55.6473195530707,2400,278.4862060546875,330.63433837890625,-0.0011911392211914062,-1.6567691564559937,0.02562686800956726,-0.004486084450036287,5.490625381469727,-0.15013256669044495,5.981922004139051e-05,5.492677568435906,19.77363924636926,0.4978812038898468,0.006819766014814377,0.0,False,1,0.0,,,60.0,40.0,80.0,5.0
55.68415158765856,2401,278.6883239746094,330.6292419433594,-0.0011860656086355448,-1.6173402070999146,0.02575664222240448,-0.010101318359375,5.501672744750977,-0.1370754837989807,0.00018105506023857743,5.503380116925906,19.81216842093326,0.49746182560920715,0.015442188829183578,0.0,False,1,0.0,,,60.0,40.0,80.0,5.0
55.7381384462351,2402,278.98516845703125,330.62261962890625,-0.0011759948683902621,-1.526092529296875,0.02317482978105545,-0.0174865685403347,5.517895221710205,-0.12034420669078827,0.00028235436184331775,5.519207414618546,19.869146692626767,0.4965231716632843,0.01751730963587761,0.0,False,1,0.0,,,60.0,40.0,80.0,5.0
55.770593141787685,2403,279.1647644042969,330.6190490722656,-0.0011660766322165728,-1.4616090059280396,0.024322303012013435,-0.0201415978372097,5.555438041687012,-0.112705759704113,0.0002466392470523715,5.556581186676266,20.00369227203456,0.49526768922805786,0.017230819910764694,0.0,False,1,0.0,,,60.0,40.0,80.0,5.0
55.80480979161803,2404,279.35504150390625,330.6153869628906,-0.0011583709856495261,-1.3963624238967896,0.025408301502466202,-0.02032470703125,5.578036308288574,-0.1093146800994873,0.00014760970952920616,5.579107345952353,20.08478644542847,0.4952543377876282,0.013514652848243713,0.0,False,1,0.0,,,60.0,40.0,80.0,5.0
55.838052956038155,2405,279.5407409667969,330.6122131347656,-0.0011527251917868853,-1.32171630859375,0.02620060369372368,-0.024078369140625,5.603590965270996,-0.09427443891763687,0.0001657390530453995,5.6043839450352975,20.17578220212707,0.4942728579044342,0.023665841668844223,0.0,False,1,0.0,,,60.0,40.0,80.0,5.0
55.872634416096844,2406,279.7345886230469,330.6092834472656,-0.0011472702026367188,-1.24017333984375,0.02610498107969761,-0.0255737267434597,5.620875835418701,-0.08807995915412903,0.0001485538377892226,5.621565908042591,20.23763726895333,0.49458545446395874,0.017996151000261307,0.0,False,1,0.0,,,60.0,40.0,80.0,5.0
55.90507801773492,2407,279.9172668457031,330.6064453125,-0.0011440658709034324,-1.1775819063186646,0.026774339377880096,-0.02243041805922985,5.650339126586914,-0.09093789756298065,9.81807716016192e-06,5.651070867255918,20.343855122121305,0.49514874815940857,0.00902797281742096,0.0,False,1,0.0,,,60.0,40.0,80.0,5.0
55.934549476602115,2408,280.0833435058594,330.6037902832031,-0.001149253803305328,-1.1327513456344604,0.024452075362205505,-0.0191345177590847,5.6176676750183105,-0.08975006639957428,-0.00011137962428620085,5.618384571544545,20.22618445756036,0.49512603878974915,0.007792353630065918,0.0,False,1,0.0,,,60.0,40.0,80.0,5.0
55.969609371968545,2409,280.28106689453125,330.6007080078125,-0.0011582565493881702,-1.0881348848342896,0.021747320890426636,-0.01641845889389515,5.635199069976807,-0.08884260803461075,-0.00016321182192768902,5.6358993598101055,20.28923769531638,0.4955785572528839,0.007792353630065918,0.0,False,1,0.0,,,60.0,40.0,80.0,5.0
56.00871735776309,2410,280.5017395019531,330.5972900390625,-0.0011694717686623335,-1.0442200899124146,0.01801803894340992,-0.01458740234375,5.625453472137451,-0.08617015928030014,-0.00014692306285724044,5.6261134084837,20.254008270541323,0.49542632699012756,0.007772117853164673,0.0,False,1,0.0,,,60.0,40.0,80.0,5.0
56.04809017071966,2411,280.7235412597656,330.5938720703125,-0.0011812209850177169,-1.008636474609375,0.013428151607513428,-0.012084960006177425,5.617667198181152,-0.0868334099650383,-0.0001587104779900983,5.61833826106934,20.226017739849624,0.4956861436367035,0.004521720111370087,0.0,False,1,0.0,,,60.0,40.0,80.0,5.0
56.08708562667016,2412,280.9430236816406,330.5904541015625,-0.0011915587820112705,-0.9810486435890198,0.009746679104864597,-0.010009764693677425,5.614836692810059,-0.08642589300870895,-0.00013295173994265497,5.615501806569446,20.215806503650008,0.4959751069545746,0.004053965210914612,0.0,False,1,0.0,,,60.0,40.0,80.0,5.0
56.12664394045714,2413,281.16558837890625,330.58697509765625,-0.0012002562871202826,-0.9626768827438354,0.0069667925126850605,-0.007293700240552425,5.611197471618652,-0.08884860575199127,-0.00013664245489053428,5.6119008507737185,20.202843062785387,0.49599331617355347,0.0009993687272071838,0.0,False,1,0.0,,,60.0,40.0,80.0,5.0
56.16155888105277,2414,281.3624267578125,330.5840148925781,-0.0012036132393404841,-0.9465330839157104,0.007328792475163937,-0.007232666481286287,5.639388084411621,-0.08541329950094223,-8.695602446096018e-05,5.6400348763014545,20.304125554685235,0.4971742331981659,0.005064085125923157,0.0,False,1,0.0,,,60.0,40.0,80.0,5.0
56.19523747602943,2415,281.5534362792969,330.5810546875,-0.0012014388339594007,-0.9323729276657104,0.010525320656597614,-0.006439208518713713,5.674028396606445,-0.08670413494110107,-5.468368544825353e-05,5.674690815850895,20.428886937063222,0.49805206060409546,0.0018476657569408417,0.0,False,1,0.0,,,60.0,40.0,80.0,5.0
56.22473485546652,2416,281.7213439941406,330.57855224609375,-0.0011998367263004184,-0.9201964139938354,0.012963698245584965,-0.0062255859375,5.698707580566406,-0.08538127690553665,-4.424095095600933e-05,5.699347160263911,20.51764977695008,0.4986194670200348,0.003909341990947723,0.0,False,1,0.0,,,60.0,40.0,80.0,5.0
56.269249604665674,2417,281.9753112792969,330.5749206542969,-0.001198081998154521,-0.8971861600875854,0.014739547856152058,-0.007049561012536287,5.706625461578369,-0.08112777769565582,8.811950465315022e-06,5.707202105684187,20.545927580463076,0.498342365026474,0.00484977662563324,0.0,False,1,0.0,,,60.0,40.0,80.0,5.0
56.306049627834,2418,282.1860656738281,330.5719909667969,-0.0011964035220444202,-0.8776244521141052,0.015572830103337765,-0.0069580078125,5.71909236907959,-0.07992541790008545,-3.290176209702622e-06,5.7196508283724565,20.590742982140846,0.4987102448940277,0.003787253051996231,0.0,False,1,0.0,,,60.0,40.0,80.0,5.0
56.341135790222324,2419,282.3875732421875,330.5691833496094,-0.0011956023517996073,-0.8620911240577698,0.016262680292129517,-0.006103515159338713,5.742012023925781,-0.08047441393136978,-1.2903213246318046e-05,5.742575921515739,20.673273317456662,0.4974118769168854,0.002217259258031845,0.0,False,1,0.0,,,60.0,40.0,80.0,5.0
56.37865660863463,2420,282.60357666015625,330.56640625,-0.0011956405360251665,-0.8377075791358948,0.016160227358341217,-0.008148194290697575,5.747499465942383,-0.07252048701047897,4.3296811782056466e-05,5.747956970430348,20.692645093549253,0.49716681241989136,0.008520964533090591,0.0,False,1,0.0,,,60.0,40.0,80.0,5.0
56.418785238289274,2421,282.83587646484375,330.5636901855469,-0.0011886977590620518,-0.80194091796875,0.018933283165097237,-0.010314940474927425,5.8139166831970215,-0.06769323348999023,0.00010096072946907952,5.814310757364974,20.931518726513907,0.49543076753616333,0.008520964533090591,0.0,False,1,0.0,,,60.0,40.0,80.0,5.0
56.460325339459814,2422,283.07806396484375,330.5611572265625,-0.0011796951293945312,-0.757537841796875,0.022464491426944733,-0.012298583053052425,5.838033199310303,-0.060611214488744736,0.0001047039040713571,5.838347828498573,21.01805218259486,0.4954697787761688,0.009405180811882019,0.0,False,1,0.0,,,60.0,40.0,80.0,5.0
56.49378562124912,2423,283.2742004394531,330.55889892578125,-0.0011756515596061945,-0.738494873046875,0.024479396641254425,-0.007751465309411287,5.863147258758545,-0.07168619334697723,-3.0851362680550665e-05,5.863585480672746,21.108907730421883,0.49432361125946045,-0.004358593374490738,0.0,False,1,0.0,,,60.0,40.0,80.0,5.0
56.52882206591312,2424,283.480224609375,330.55609130859375,-0.0011804579989984632,-0.7440185546875,0.024834565818309784,-0.00103759765625,5.876014232635498,-0.0821484625339508,-0.00021214484877418727,5.876588438629769,21.155718379067167,0.4944894015789032,-0.008037066087126732,0.0,False,1,0.0,,,60.0,40.0,80.0,5.0
56.5613449603552,2425,283.672119140625,330.55303955078125,-0.0011858749203383923,-0.7720336318016052,0.025141924619674683,0.005906973499804735,5.905642032623291,-0.09612242132425308,-7.057666516629979e-05,5.9064242433429435,21.2631272760346,0.49293768405914307,-0.014406366273760796,0.0,False,1,0.0,,,60.0,40.0,80.0,5.0
56.599653118872084,2426,283.8985595703125,330.54913330078125,-0.0011857986683025956,-0.81744384765625,0.02305188775062561,0.010113340802490711,5.89516019821167,-0.10165433585643768,0.00011759757762774825,5.896036582349762,21.225731696459142,0.49085932970046997,-0.01005220040678978,0.0,False,1,0.0,,,60.0,40.0,80.0,5.0
56.63383155467454,2427,284.1006774902344,330.5455017089844,-0.0011845015687868,-0.8605040907859802,0.02082524634897709,0.011792159639298916,5.914438247680664,-0.10712994635105133,0.00012402534775901586,5.91540840740649,21.295470266663365,0.491772323846817,-0.01005220040678978,0.0,False,1,0.0,,,60.0,40.0,80.0,5.0
56.66523250343744,2428,284.2872314453125,330.5422668457031,-0.0011807632399722934,-0.888702392578125,0.021521924063563347,0.009338704869151115,5.951091766357422,-0.1019890084862709,4.387855369714089e-05,5.951965639298034,21.427076301472923,0.49185529351234436,-0.00044500455260276794,0.0,False,1,0.0,,,60.0,40.0,80.0,5.0
56.69594686070923,2429,284.47088623046875,330.5394592285156,-0.0011800766224041581,-0.8906860947608948,0.024096906185150146,0.002556219696998596,5.9885454177856445,-0.08866998553276062,-0.00016264915757346898,5.9892018344409275,21.56112660398734,0.49193617701530457,0.01000942662358284,0.0,False,1,0.0,,,60.0,40.0,80.0,5.0
56.72780315915588,2430,284.6623840332031,330.5369567871094,-0.0011831665178760886,-0.8674927353858948,0.026487471535801888,-0.004943847190588713,6.014673233032227,-0.07670743018388748,-0.00011064529098803177,6.015162353772518,21.654584473581064,0.4917914867401123,0.012899946421384811,0.0,False,1,0.0,,,60.0,40.0,80.0,5.0
56.7608133998001,2431,284.86151123046875,330.53466796875,-0.0011805343674495816,-0.8275452852249146,0.027184151113033295,-0.01043701171875,6.030916213989258,-0.06769658625125885,0.0001207637760671787,6.031296147805419,21.712666132099507,0.49254322052001953,0.012899946421384811,0.0,False,1,0.0,,,60.0,40.0,80.0,5.0
56.803044888773,2432,285.1168518066406,330.5321350097656,-0.0011747741373255849,-0.7660216689109802,0.02609815075993538,-0.01425170712172985,6.057065963745117,-0.05996031314134598,0.00018771171744447201,6.057362739967556,21.806505863883203,0.4925602674484253,0.01256413385272026,0.0,False,1,0.0,,,60.0,40.0,80.0,5.0
56.84703944588546,2433,285.38299560546875,330.52984619140625,-0.001173057476989925,-0.6974791884422302,0.022129811346530914,-0.01626586727797985,6.044861316680908,-0.05126208811998367,0.00013834952551405877,6.045078672666242,21.762283221598473,0.4924280345439911,0.011851426213979721,0.0,False,1,0.0,,,60.0,40.0,80.0,5.0
56.88425629551057,2434,285.6080627441406,330.5279235839844,-0.0011752318823710084,-0.6484069228172302,0.01781996339559555,-0.014617919921875,6.034832000732422,-0.05167599022388458,3.293991176178679e-05,6.035053246336335,21.726191686810807,0.4922153055667877,0.006214916706085205,0.0,False,1,0.0,,,60.0,40.0,80.0,5.0
56.91788992623333,2435,285.8115539550781,330.52593994140625,-0.0011801528744399548,-0.6273192763328552,0.015381584875285625,-0.008758544921875,6.050846576690674,-0.06248895451426506,-0.00012820243136957288,6.051169240776645,21.784209266795923,0.49213069677352905,-0.004574522376060486,0.0,False,1,0.0,,,60.0,40.0,80.0,5.0
56.95215224067215,2436,286.0193176269531,330.52362060546875,-0.0011885070707648993,-0.6266478896141052,0.014582453295588493,-0.0032958982046693563,6.061887264251709,-0.06874550879001617,-0.0002368068671785295,6.062277064400254,21.824197431840915,0.4949930012226105,-0.004574522376060486,0.0,False,1,0.0,,,60.0,40.0,80.0,5.0
56.985552165308036,2437,286.2222900390625,330.52056884765625,-0.0011960600968450308,-0.6670226454734802,0.014534641988575459,0.008822274394333363,6.078064918518066,-0.09749551862478256,-9.754180791787803e-05,6.078846809994997,21.883848515981988,0.49516138434410095,-0.026287810876965523,0.0,False,1,0.0,,,60.0,40.0,80.0,5.0
57.01624948868994,2438,286.4096374511719,330.51715087890625,-0.0011892699403688312,-0.732208251953125,0.016242189332842827,0.01760140247642994,6.111633777618408,-0.11202461272478104,0.0002575778926257044,6.112660387419602,22.005577394710567,0.494485467672348,-0.02172663062810898,0.0,False,1,0.0,,,60.0,40.0,80.0,5.0
57.05391970241908,2439,286.63995361328125,330.512451171875,-0.0011772536672651768,-0.8266905546188354,0.01598947122693062,0.02388741262257099,6.097853183746338,-0.12524598836898804,0.00034109115949831903,6.099139293742278,21.9569014574722,0.49500706791877747,-0.021372759714722633,0.0,False,1,0.0,,,60.0,40.0,80.0,5.0
57.091783903189935,2440,286.8709411621094,330.5075988769531,-0.0011719131143763661,-0.9134825468063354,0.012253358960151672,0.02314799092710018,6.086278438568115,-0.12652014195919037,0.00018875121895689517,6.087593335114258,21.91533600641133,0.4943718910217285,-0.01233011856675148,0.0,False,1,0.0,,,60.0,40.0,80.0,5.0
57.1251973133767,2441,287.07489013671875,330.5032653808594,-0.001170692383311689,-0.9785768389701843,0.010784868150949478,0.021497657522559166,6.10607385635376,-0.12995415925979614,4.321098094806075e-05,6.107456592119422,21.986843731629918,0.49553343653678894,-0.011328021064400673,0.0,False,1,0.0,,,60.0,40.0,80.0,5.0
57.170298210927285,2442,287.35076904296875,330.49725341796875,-0.0011717224260792136,-1.05303955078125,0.01038188673555851,0.019357221201062202,6.124321937561035,-0.13346916437149048,-3.944397030863911e-05,6.125776131584079,22.052794073702685,0.4958265423774719,-0.010056933388113976,0.0,False,1,0.0,,,60.0,40.0,80.0,5.0
57.20033364894334,2443,287.535400390625,330.49334716796875,-0.0011709594400599599,-1.0875853300094604,0.01309347152709961,0.015689440071582794,6.16865348815918,-0.12980800867080688,-0.00012413501099217683,6.170019124079194,22.2120688466851,0.4954497218132019,-0.0021603070199489594,0.0,False,1,0.0,,,60.0,40.0,80.0,5.0
57.228753156610765,2444,287.71063232421875,330.4900207519531,-0.0011757278116419911,-1.0928343534469604,0.014493661001324654,0.007520002778619528,6.150722503662109,-0.11476937681436539,-0.00029459953657351434,6.151793186843876,22.146455472637953,0.4950537383556366,0.011977244168519974,0.0,False,1,0.0,,,60.0,40.0,80.0,5.0
57.26255318860058,2445,287.9190979003906,330.48663330078125,-0.0011902617989107966,-1.0655518770217896,0.01423411350697279,-0.00299072265625,6.166946887969971,-0.0971575453877449,-0.00046274185297079384,6.167712195117271,22.203763902422175,0.49535566568374634,0.016952112317085266,0.0,False,1,0.0,,,60.0,40.0,80.0,5.0
57.29651698062662,2446,288.1290283203125,330.4836120605469,-0.0011957931565120816,-1.019287109375,0.014295585453510284,-0.00933837890625,6.1794867515563965,-0.0890212431550026,-5.234718264546245e-05,6.180127935337109,22.24846056721359,0.49593427777290344,0.012896988540887833,0.0,False,1,0.0,,,60.0,40.0,80.0,5.0
57.32871169561986,2447,288.32861328125,330.4808654785156,-0.0011934280628338456,-0.9759522080421448,0.015190339647233486,-0.01080322265625,6.203421115875244,-0.0877368226647377,6.999492325121537e-05,6.204041529183816,22.334549505061737,0.4961335062980652,0.007864166051149368,0.0,False,1,0.0,,,60.0,40.0,80.0,5.0
57.35720186831895,2448,288.50555419921875,330.4783020019531,-0.0011920928955078125,-0.9474487900733948,0.015285962261259556,-0.009033203125,6.211610794067383,-0.09119372069835663,2.6550293114269152e-05,6.212280173364217,22.364208624111182,0.4965134263038635,0.0023578517138957977,0.0,False,1,0.0,,,60.0,40.0,80.0,5.0
57.3864556994522,2449,288.6865539550781,330.4756164550781,-0.0011976623209193349,-0.9265440106391907,0.01159083005040884,-0.00701904296875,6.176294803619385,-0.09168015420436859,-5.720138506148942e-05,6.176975210826312,22.237110758974723,0.4969787299633026,0.001974184066057205,0.0,False,1,0.0,,,60.0,40.0,80.0,5.0
57.41990094969515,2450,288.8937072753906,330.4725036621094,-0.0012024688767269254,-0.911224365234375,0.009937924332916737,-0.004974364768713713,6.19691276550293,-0.09390828013420105,-8.44097085064277e-05,6.197624270271305,22.311447372976698,0.4981611371040344,0.000584181398153305,0.0,False,1,0.0,,,60.0,40.0,80.0,5.0
57.457805622019805,2451,289.1287536621094,330.4689025878906,-0.0012082289904356003,-0.9034729599952698,0.008496754802763462,-0.002716064453125,6.187021255493164,-0.09623649716377258,-0.00011606216139625758,6.187769670307791,22.27597081310805,0.49791648983955383,-0.0007891319692134857,0.0,False,1,0.0,,,60.0,40.0,80.0,5.0
57.48767961526755,2452,289.3137512207031,330.4660339355469,-0.0012136077275499701,-0.8992003202438354,0.006577471736818552,-0.0022888181265443563,6.195200443267822,-0.09536580741405487,-8.657455327920616e-05,6.195934407091856,22.30536386553068,0.49806782603263855,0.0014168061316013336,0.0,False,1,0.0,,,60.0,40.0,80.0,5.0
57.51513440499548,2453,289.4835205078125,330.4634704589844,-0.0012173843570053577,-0.893707275390625,0.004842604044824839,-0.0026855466421693563,6.185845375061035,-0.09342490136623383,-2.463340752001386e-05,6.186550833620144,22.271583001032518,0.4983308017253876,0.0022159814834594727,0.0,False,1,0.0,,,60.0,40.0,80.0,5.0
57.54620060662273,2454,289.676513671875,330.4608154296875,-0.0012143325293436646,-0.8769225478172302,0.006871169898658991,-0.005828857421875,6.224442481994629,-0.08452808111906052,5.6791304814396426e-05,6.2250164024990635,22.41005904899663,0.49871817231178284,0.009583212435245514,0.0,False,1,0.0,,,60.0,40.0,80.0,5.0
57.5839633528376,2455,289.9118347167969,330.4578857421875,-0.0012070083757862449,-0.8416747450828552,0.008790452964603901,-0.009796141646802425,6.217637062072754,-0.07658913731575012,0.00015405654266942292,6.21810876033452,22.38519153720427,0.4985761046409607,0.009583212435245514,0.0,False,1,0.0,,,60.0,40.0,80.0,5.0
57.625476546236314,2456,290.1710205078125,330.4551086425781,-0.0011968230828642845,-0.784698486328125,0.010538981296122074,-0.01483154483139515,6.259119033813477,-0.06425416469573975,0.0002268695825478062,6.2594488358478255,22.53401580905217,0.4981131851673126,0.014525622129440308,0.0,False,1,0.0,,,60.0,40.0,80.0,5.0
57.65876203367952,2457,290.379638671875,330.45330810546875,-0.001185951172374189,-0.7243956923484802,0.01274513266980648,-0.01907348819077015,6.280662536621094,-0.05303284525871277,0.00024546621716581285,6.280886437585511,22.611191175307837,0.49773651361465454,0.016741037368774414,0.0,False,1,0.0,,,60.0,40.0,80.0,5.0
57.688403065898456,2458,290.5654296875,330.4519348144531,-0.0011798095656558871,-0.6674193739891052,0.011898188851773739,-0.02087402157485485,6.25172758102417,-0.04623459279537201,0.00021716117043979466,6.251898546207244,22.506834766346078,0.49780136346817017,0.01370474323630333,0.0,False,1,0.0,,,60.0,40.0,80.0,5.0
57.719708334305324,2459,290.76202392578125,330.45074462890625,-0.0011735534062609076,-0.6054382920265198,0.012403623200953007,-0.02239990234375,6.290216445922852,-0.03797740861773491,0.0001661348360357806,6.290331092059019,22.64519193141247,0.4987318217754364,0.015508163720369339,0.0,False,1,0.0,,,60.0,40.0,80.0,5.0
57.75414517859463,2460,290.9791259765625,330.44970703125,-0.0011662673205137253,-0.5351563096046448,0.014199962839484215,-0.02380370907485485,6.302702903747559,-0.030032694339752197,0.0001255702954949811,6.302774458237032,22.689988049653316,0.4981975257396698,0.014977272599935532,0.0,False,1,0.0,,,60.0,40.0,80.0,5.0
