time_stamp,frame,x,y,z,yaw,pitch,roll,vx,vy,vz,speed_mps,speed_kmh,throttle,steer,brake,reverse,gear,collision_impulse,collision_with,lane_invasion,weather_cloud,weather_rain,weather_wetness,weather_fog
33.61263824929483,1445,263.2265319824219,331.0009765625,-0.001284751808270812,0.13157977163791656,0.06959962099790573,-0.000213623046875,1.6038174629211426,0.0020668008364737034,-0.0008030605386011302,1.6038189956920752,5.773748384491471,0.4850565195083618,-0.0007114000618457794,0.0,False,1,0.0,,,60.0,40.0,80.0,5.0
33.66065704380162,1446,263.3056335449219,331.0011901855469,-0.0013153075706213713,0.1585903763771057,0.06250305473804474,-0.0020141603890806437,1.6799057722091675,0.006041012704372406,-0.0002647876681294292,1.6799166549113926,6.047699957681013,0.4860408902168274,0.0022659488022327423,0.0,False,1,0.0,,,60.0,40.0,80.0,5.0
33.69598786835559,1447,263.36541748046875,331.00140380859375,-0.0012977218721061945,0.17944511771202087,0.05909479409456253,-0.0021057124249637127,1.72539484500885,0.005229456350207329,0.00052304269047454,1.7254028491834852,6.211450257060547,0.486017107963562,-0.0010150708258152008,0.0,False,1,0.0,,,60.0,40.0,80.0,5.0
33.7298551753629,1448,263.42449951171875,331.0015869140625,-0.001274871756322682,0.19760994613170624,0.057879019528627396,-0.0023193357046693563,1.7760916948318481,0.006584028247743845,0.0005808448768220842,1.7761039933684641,6.393974376126471,0.48340022563934326,0.0006158575415611267,0.0,False,1,0.0,,,60.0,40.0,80.0,5.0
33.7634173699189,1449,263.4847412109375,331.0018615722656,-0.00125885009765625,0.21542014181613922,0.05755800008773804,-0.0027160639874637127,1.8248701095581055,0.008109726011753082,0.0003946780925616622,1.8248881719670917,6.56959741908153,0.48421651124954224,0.0016345754265785217,0.0,False,1,0.0,,,60.0,40.0,80.0,5.0
33.7935708288569,1450,263.54052734375,331.0022277832031,-0.0012273406609892845,0.22846293449401855,0.05856204032897949,-0.0026245119515806437,1.8795496225357056,0.008069844916462898,0.0007923793746158481,1.8795671134163212,6.766441608298757,0.4853350818157196,0.00027362629771232605,0.0,False,1,0.0,,,60.0,40.0,80.0,5.0
33.826780387433246,1451,263.603515625,331.0025329589844,-0.0012308883015066385,0.24125106632709503,0.05886256694793701,-0.0024108884390443563,1.9232548475265503,0.008522146381437778,-0.00011686325160553679,1.9232737322519486,6.923785436107015,0.4853350818157196,0.00027362629771232605,0.0,False,1,0.0,,,60.0,40.0,80.0,5.0
33.872036637039855,1452,263.6909484863281,331.0029602050781,-0.0012692641466856003,0.2626913785934448,0.055761661380529404,-0.0014038084773346782,1.9387668371200562,0.006761431694030762,-0.0005834770272485912,1.9387787150988893,6.979603374356001,0.4841631054878235,-0.0027305446565151215,0.0,False,1,0.0,,,60.0,40.0,80.0,5.0
33.901196954073384,1453,263.74835205078125,331.0032043457031,-0.0013047027168795466,0.2687869071960449,0.05373992398381233,-0.001129150390625,1.98625648021698,0.007076381240040064,-0.0009385108714923263,1.9862693073141053,7.150569506330779,0.48610222339630127,-0.0025183893740177155,0.0,False,1,0.0,,,60.0,40.0,80.0,5.0
33.93285256368108,1454,263.8119201660156,331.00335693359375,-0.0012723159743472934,0.27576592564582825,0.052927132695913315,-0.0001525878324173391,2.035297155380249,0.004723947960883379,0.0008582448936067522,2.035302818493496,7.327090146576585,0.48507654666900635,-0.006327752023935318,0.0,False,1,0.0,,,60.0,40.0,80.0,5.0
33.964038350852206,1455,263.8760681152344,331.0033264160156,-0.0012488936772570014,0.2686194181442261,0.053295962512493134,0.0025502443313598633,2.082761526107788,-0.0020201161969453096,0.0006209611892700195,2.082762598352748,7.497945354069893,0.48917657136917114,-0.01476953737437725,0.0,False,1,0.0,,,60.0,40.0,80.0,5.0
33.99437921238132,1456,263.93994140625,331.0031433105469,-0.0012284850236028433,0.2559497058391571,0.05410875380039215,0.00417459337040782,2.128356456756592,-0.0038093363400548697,0.0005126809701323509,2.128359927479984,7.662095738927943,0.4867840111255646,-0.01392332836985588,0.0,False,1,0.0,,,60.0,40.0,80.0,5.0
34.026487400056794,1457,264.0087890625,331.00311279296875,-0.0012293242616578937,0.24650175869464874,0.05426584929227829,0.0035647612530738115,2.167505979537964,-0.0011704079806804657,-5.739688640460372e-05,2.1675062962958314,7.803022666664993,0.48720118403434753,-0.008891815319657326,0.0,False,1,0.0,,,60.0,40.0,80.0,5.0
34.056820213096216,1458,264.0751037597656,331.00311279296875,-0.0012205886887386441,0.23897147178649902,0.05427950993180275,0.0028495113365352154,2.2078490257263184,-0.0009120216127485037,0.00020072936604265124,2.2078492232207236,7.948257203594605,0.4873724579811096,-0.009108152240514755,0.0,False,1,0.0,,,60.0,40.0,80.0,5.0
34.0903289236594,1459,264.14947509765625,331.00311279296875,-0.0012416839599609375,0.23432646691799164,0.05317302048206329,0.0016217323718592525,2.2406649589538574,0.0012287511490285397,-0.0005033397465012968,2.2406653524040525,8.06639526865459,0.4870668053627014,-0.006293587386608124,0.0,False,1,0.0,,,60.0,40.0,80.0,5.0
34.132094784872606,1460,264.24359130859375,331.0035400390625,-0.0012593840947374701,0.2509526014328003,0.050563886761665344,-0.0028076169546693563,2.263547658920288,0.011154992505908012,-0.00022382735915016383,2.263575156287065,8.148870562633434,0.48542919754981995,0.004328589886426926,0.0,False,1,0.0,,,60.0,40.0,80.0,5.0
34.16091902111657,1461,264.3094177246094,331.00390625,-0.0013020705664530396,0.25967761874198914,0.04846018925309181,-0.004028319381177425,2.2971904277801514,0.01184764876961708,-0.0011529349721968174,2.297221268734288,8.269996567443437,0.48590654134750366,0.0018879175186157227,0.0,False,1,0.0,,,60.0,40.0,80.0,5.0
34.19303701375611,1462,264.3836975097656,331.00439453125,-0.0012810134794563055,0.2760833501815796,0.04677313193678856,-0.005004882346838713,2.3342444896698,0.014666900038719177,0.0006151437410153449,2.3342906489793407,8.403446336325628,0.4886772632598877,0.004157405346632004,0.0,False,1,0.0,,,60.0,40.0,80.0,5.0
34.22550697554834,1463,264.46002197265625,331.0048828125,-0.0012697220081463456,0.29055434465408325,0.04606962203979492,-0.005340575706213713,2.3714866638183594,0.015901608392596245,0.00031342028523795307,2.3715399967215562,8.537543988197603,0.48710930347442627,0.003769136965274811,0.0,False,1,0.0,,,60.0,40.0,80.0,5.0
34.25902309943922,1464,264.5399475097656,331.0056457519531,-0.0012699126964434981,0.3147296607494354,0.045372944325208664,-0.007507324684411287,2.4050230979919434,0.02379000373184681,3.991126868641004e-05,2.405140758405885,8.658506730261186,0.489091157913208,0.011936184018850327,0.0,False,1,0.0,,,60.0,40.0,80.0,5.0
34.28775478270836,1465,264.60894775390625,331.00640869140625,-0.0013057708274573088,0.34541159868240356,0.04303701967000961,-0.008453368209302425,2.399749755859375,0.02535163424909115,-0.0009450053912587464,2.399883849093831,8.639581856737792,0.4882364869117737,0.010884642601013184,0.0,False,1,0.0,,,60.0,40.0,80.0,5.0
34.318154874490574,1466,264.68310546875,331.0071716308594,-0.0012697220081463456,0.3665911555290222,0.042818453162908554,-0.007415770553052425,2.4508867263793945,0.023483389988541603,0.0009727763826958835,2.450999420938722,8.8235979153794,0.48873934149742126,0.005703594535589218,0.0,False,1,0.0,,,60.0,40.0,80.0,5.0
34.35048882220872,1467,264.7633056640625,331.0078430175781,-0.001261215191334486,0.37797489762306213,0.04327607527375221,-0.004913330543786287,2.4870076179504395,0.019819336012005806,0.0001541757519589737,2.487086593103191,8.953511735171489,0.48898032307624817,0.0011323913931846619,0.0,False,1,0.0,,,60.0,40.0,80.0,5.0
34.40078220074065,1468,264.8901672363281,331.0087890625,-0.0012707519344985485,0.3892368972301483,0.04320777580142021,-0.0021362302359193563,2.536947250366211,0.018139850348234177,-0.0001717472041491419,2.537012107737848,9.133243587856253,0.489879310131073,0.0002296753227710724,0.0,False,1,0.0,,,60.0,40.0,80.0,5.0
34.4395233981777,1469,264.9891662597656,331.0093994140625,-0.0013259506085887551,0.399743914604187,0.04114505648612976,-0.001220703125,2.5536932945251465,0.01779410056769848,-0.001040658913552761,2.5537555003344945,9.19351980120418,0.49172887206077576,-6.973370909690857e-05,0.0,False,1,0.0,,,60.0,40.0,80.0,5.0
34.474532823311165,1470,265.07977294921875,331.00994873046875,-0.0013201903784647584,0.4047272801399231,0.040093209594488144,0.00021076005941722542,2.594964027404785,0.015024850144982338,0.00016225814761128277,2.5950075290785666,9.34202710468284,0.49166765809059143,-0.003643471747636795,0.0,False,1,0.0,,,60.0,40.0,80.0,5.0
34.50308432173915,1471,265.1545715332031,331.01043701171875,-0.0013385772472247481,0.40582653880119324,0.039867810904979706,-9.155274892691523e-05,2.63468599319458,0.017731737345457077,-0.0005186843918636441,2.6347457118816036,9.485084562773773,0.4914405941963196,0.00033950433135032654,0.0,False,1,0.0,,,60.0,40.0,80.0,5.0
34.5375451867003,1472,265.2460021972656,331.0111999511719,-0.0013185500865802169,0.4196230471134186,0.040113698691129684,-0.0021057124249637127,2.6759066581726074,0.02317938022315502,0.00048741340287961066,2.6760070935055174,9.633625536619864,0.4897763133049011,0.004665195941925049,0.0,False,1,0.0,,,60.0,40.0,80.0,5.0
34.57504686457105,1473,265.3469543457031,331.0119934082031,-0.0013308334164321423,0.42928460240364075,0.04040056839585304,-0.0014648436335846782,2.713526487350464,0.019857333973050117,-0.00025630948948673904,2.7135991555422514,9.768956959952105,0.4897709786891937,-0.0013770386576652527,0.0,False,1,0.0,,,60.0,40.0,80.0,5.0
34.60486375098117,1474,265.427978515625,331.0126037597656,-0.001354865962639451,0.44051504135131836,0.03946483135223389,-0.0008239745511673391,2.7191340923309326,0.01934012770652771,-0.0006355285295285285,2.7192029450764763,9.789130602275314,0.49104782938957214,-0.0013770386576652527,0.0,False,1,0.0,,,60.0,40.0,80.0,5.0
34.636175639228895,1475,265.5145568847656,331.0130920410156,-0.0013020705664530396,0.43970566987991333,0.04117237776517868,0.0006084818742237985,2.7817394733428955,0.01639007404446602,0.001319565693847835,2.7817880712474867,10.014437056490953,0.4904249906539917,-0.00494619645178318,0.0,False,1,0.0,,,60.0,40.0,80.0,5.0
34.67060366203077,1476,265.61151123046875,331.0137023925781,-0.001289100619032979,0.43376824259757996,0.04356294497847557,0.001353735220618546,2.8265151977539062,0.016269933432340622,0.0002233695995528251,2.826562032533812,10.175623317121724,0.4900100529193878,-0.004021260887384415,0.0,False,1,0.0,,,60.0,40.0,80.0,5.0
34.70180316013284,1477,265.70086669921875,331.01416015625,-0.0012582779163494706,0.42773884534835815,0.04598082974553108,0.001537646516226232,2.8794102668762207,0.01632845401763916,0.0007046603714115918,2.879456650124991,10.366043940449968,0.4908800721168518,-0.0038522817194461823,0.0,False,1,0.0,,,60.0,40.0,80.0,5.0
34.730641138972715,1478,265.7845458984375,331.0145568847656,-0.0012924575712531805,0.4155419170856476,0.04721709340810776,0.0023605648893862963,2.9157814979553223,0.013854483142495155,-0.0010420989710837603,2.915814599128688,10.496932556863278,0.4909295439720154,-0.006493549793958664,0.0,False,1,0.0,,,60.0,40.0,80.0,5.0
34.76218690094538,1479,265.8773193359375,331.0150451660156,-0.0012625884264707565,0.4088312089443207,0.04841920733451843,0.002193789929151535,2.9616613388061523,0.015330327674746513,0.000721840828191489,2.9617011033829606,10.662123972178659,0.4916612505912781,-0.0037442147731781006,0.0,False,1,0.0,,,60.0,40.0,80.0,5.0
34.79227007483132,1480,265.96728515625,331.015625,-0.0012364196591079235,0.4071598947048187,0.050236038863658905,0.0004532303719315678,3.009809732437134,0.020127400755882263,0.0006053972174413502,3.0098770912182227,10.835557528385602,0.49188563227653503,0.0007929839193820953,0.0,False,1,0.0,,,60.0,40.0,80.0,5.0
34.82627623458393,1481,266.0705871582031,331.0166015625,-0.0012482833117246628,0.4195815324783325,0.0517045296728611,-0.00372314453125,3.0557615756988525,0.030101435258984566,-0.00029213904053904116,3.0559098463906627,11.001275447006385,0.48995038866996765,0.008479204028844833,0.0,False,1,0.0,,,60.0,40.0,80.0,5.0
34.861996463732794,1482,266.1805114746094,331.01776123046875,-0.0012683486565947533,0.4391995370388031,0.05183430388569832,-0.005889892578125,3.097501754760742,0.03273778036236763,-0.0004292201774660498,3.0976747839692425,11.151629222289273,0.4912606179714203,0.0070371441543102264,0.0,False,1,0.0,,,60.0,40.0,80.0,5.0
34.898449207888916,1483,266.2942199707031,331.01910400390625,-0.001285285921767354,0.46322324872016907,0.05136984959244728,-0.007171631325036287,3.140355348587036,0.03677280992269516,-0.0003275966446381062,3.140570658696979,11.306054371309125,0.49209868907928467,0.008751247078180313,0.0,False,1,0.0,,,60.0,40.0,80.0,5.0
34.93109231744893,1484,266.3976135253906,331.02081298828125,-0.0012607574462890625,0.5075234770774841,0.05173185095191002,-0.01309203915297985,3.1883394718170166,0.05578290671110153,0.0006785821751691401,3.1888274930922997,11.479778975132279,0.49304285645484924,0.02449319139122963,0.0,False,1,0.0,,,60.0,40.0,80.0,5.0
34.96241979976185,1485,266.4984130859375,331.02288818359375,-0.001232147216796875,0.5619372129440308,0.052927132695913315,-0.0173644982278347,3.2378921508789062,0.06442856788635254,0.00074273586506024,3.2385331822817074,11.658719456214147,0.48991137742996216,0.02449319139122963,0.0,False,1,0.0,,,60.0,40.0,80.0,5.0
35.006658165948465,1486,266.6431884765625,331.02569580078125,-0.0012473296374082565,0.6282537579536438,0.05380822718143463,-0.015594481490552425,3.2934014797210693,0.06181918457150459,-0.00031522748759016395,3.29398163588967,11.858333889202811,0.48900875449180603,0.016090113669633865,0.0,False,1,0.0,,,60.0,40.0,80.0,5.0
35.03690197248943,1487,266.74371337890625,331.02777099609375,-0.0012189102126285434,0.6732038855552673,0.05448441579937935,-0.015838623046875,3.3428008556365967,0.06955423951148987,0.0007406139047816396,3.3435244729458375,12.036688102605016,0.48869362473487854,0.021516237407922745,0.0,False,1,0.0,,,60.0,40.0,80.0,5.0
35.06793280434795,1488,266.8484191894531,331.0300598144531,-0.0012057876447215676,0.7242756485939026,0.055666036903858185,-0.01641845703125,3.392845630645752,0.07486706227064133,0.00029446123517118394,3.3936715570473854,12.217217605370587,0.48869362473487854,0.021516237407922745,0.0,False,1,0.0,,,60.0,40.0,80.0,5.0
35.099579674424604,1489,266.95684814453125,331.0322265625,-0.0012047195341438055,0.7587530016899109,0.05684766173362732,-0.011688232421875,3.442704439163208,0.06454899907112122,-0.00010082721564685926,3.443309518309568,12.395914265914445,0.4904549717903137,0.0077757276594638824,0.0,False,1,0.0,,,60.0,40.0,80.0,5.0
35.129851333098486,1490,267.0619812011719,331.0340576171875,-0.001200447091832757,0.7810665965080261,0.057865358889102936,-0.007720947265625,3.490823984146118,0.06277310848236084,1.1940001968469005e-05,3.4913883415599702,12.568998029615893,0.49070918560028076,0.0077757276594638824,0.0,False,1,0.0,,,60.0,40.0,80.0,5.0
35.16382525791414,1491,267.18170166015625,331.03704833984375,-0.0012242125812917948,0.8448352217674255,0.05871230363845825,-0.015411376953125,3.5419838428497314,0.09364412724971771,-0.0004935932229273021,3.543221558019084,12.755597608868701,0.4906218647956848,0.03475866839289665,0.0,False,1,0.0,,,60.0,40.0,80.0,5.0
35.194957048865035,1492,267.29290771484375,331.0399475097656,-0.0012134932912886143,0.9026382565498352,0.05935433879494667,-0.01629638671875,3.5912892818450928,0.0888342559337616,0.00025572776212356985,3.592387826546493,12.932596175567376,0.48866045475006104,0.017749808728694916,0.0,False,1,0.0,,,60.0,40.0,80.0,5.0
35.22456695069559,1493,267.4001159667969,331.0423278808594,-0.0012703704414889216,0.9313486218452454,0.05967535823583603,-0.010955810546875,3.6330056190490723,0.07825078070163727,-0.001684703747741878,3.633848627963095,13.081855060667142,0.4926203191280365,0.0064359307289123535,0.0,False,1,0.0,,,60.0,40.0,80.0,5.0
35.25524526019581,1494,267.51251220703125,331.044677734375,-0.0012445449829101562,0.9525557160377502,0.06002369895577431,-0.006164550315588713,3.6840429306030273,0.07465771585702896,0.0006347036105580628,3.6847993828581505,13.265277778289342,0.4927327632904053,0.005571890622377396,0.0,False,1,0.0,,,60.0,40.0,80.0,5.0
35.28695135866292,1495,267.6304016113281,331.04730224609375,-0.0012368011521175504,0.9809656143188477,0.060877472162246704,-0.006286620628088713,3.7379939556121826,0.08331955969333649,0.00017499923706054688,3.73892243725989,13.460120774135605,0.49116218090057373,0.013265933841466904,0.0,False,1,0.0,,,60.0,40.0,80.0,5.0
35.31846096296795,1496,267.7492370605469,331.0500183105469,-0.0012297057546675205,1.0140209197998047,0.0618678517639637,-0.00714111328125,3.791865348815918,0.08714745938777924,0.0001474380405852571,3.7928666632201273,13.654319987592459,0.49067452549934387,0.012311849743127823,0.0,False,1,0.0,,,60.0,40.0,80.0,5.0
35.34836130333133,1497,267.8636474609375,331.0527648925781,-0.0012861633440479636,1.0464462041854858,0.0628582239151001,-0.007720945402979851,3.8429691791534424,0.09060540795326233,-0.0016054058214649558,3.8440374645939017,13.838534872538046,0.48799630999565125,0.012311849743127823,0.0,False,1,0.0,,,60.0,40.0,80.0,5.0
35.378855916904286,1498,267.9818115234375,331.05572509765625,-0.0012498473515734076,1.0828230381011963,0.06371200084686279,-0.008911131881177425,3.8945698738098145,0.09645196795463562,0.0009721183450892568,3.8957641649775714,14.024750993919257,0.4864134192466736,0.014318812638521194,0.0,False,1,0.0,,,60.0,40.0,80.0,5.0
35.41236299951561,1499,268.1134948730469,331.05889892578125,-0.001246871892362833,1.115480899810791,0.06447698175907135,-0.007537841331213713,3.950939893722534,0.09408203512430191,2.838134787452873e-05,3.952059902626333,14.2274156494548,0.48824408650398254,0.008294623345136642,0.0,False,1,0.0,,,60.0,40.0,80.0,5.0
35.445865652756765,1500,268.2470397949219,331.0613098144531,-0.001249236986041069,1.1055444478988647,0.06499607861042023,0.0030326726846396923,4.006617069244385,0.06766151636838913,-0.00011562347208382562,4.007188345177516,14.425878042639058,0.48640209436416626,-0.014173392206430435,0.0,False,1,0.0,,,60.0,40.0,80.0,5.0
35.47480353829451,1501,268.3638916015625,331.06256103515625,-0.0012813567882403731,1.0526124238967896,0.06515999883413315,0.016378505155444145,4.053585529327393,0.03965894505381584,-0.0007818412850610912,4.053779605105711,14.593606578380559,0.48590943217277527,-0.030834026634693146,0.0,False,1,0.0,,,60.0,40.0,80.0,5.0
35.50576830771752,1502,268.4903869628906,331.0633850097656,-0.0012358474778011441,0.9787226319313049,0.06521464139223099,0.025135010480880737,4.103514194488525,0.028236888349056244,0.0013167953584343195,4.103611555713146,14.773001600567325,0.48670756816864014,-0.027457494288682938,0.0,False,1,0.0,,,60.0,40.0,80.0,5.0
35.53598308493383,1503,268.61529541015625,331.06396484375,-0.0011990737402811646,0.9022664427757263,0.06515999883413315,0.02910272777080536,4.151628494262695,0.019990423694252968,0.0010396098950877786,4.1516767518921975,14.946036306811912,0.4879290461540222,-0.027457494288682938,0.0,False,1,0.0,,,60.0,40.0,80.0,5.0
35.56796608422883,1504,268.74908447265625,331.0640869140625,-0.0011849594302475452,0.8076479434967041,0.06495509296655655,0.03366430103778839,4.201661109924316,0.003522003535181284,0.0004136752977501601,4.20166260643172,15.125985383154191,0.48722410202026367,-0.034952059388160706,0.0,False,1,0.0,,,60.0,40.0,80.0,5.0
35.5981716637034,1505,268.8768615722656,331.06494140625,-0.001169128343462944,0.7638418078422546,0.06470237672328949,0.0224965400993824,4.2479567527771,0.03787919133901596,0.0002699184406083077,4.248125643087434,15.293252315114762,0.48755550384521484,0.003200393170118332,0.0,False,1,0.0,,,60.0,40.0,80.0,5.0
35.638932251604274,1506,269.051513671875,331.06707763671875,-0.001194763113744557,0.7576689720153809,0.06426524370908737,0.00730636203661561,4.310182571411133,0.0540330596268177,-0.0006652211886830628,4.310521292482865,15.517876652938314,0.4891561269760132,0.003200393170118332,0.0,False,1,0.0,,,60.0,40.0,80.0,5.0
35.67119176057167,1507,269.1915588378906,331.06878662109375,-0.0012125778011977673,0.7539364695549011,0.06380762159824371,0.0035319859161973,4.358706474304199,0.05161668732762337,-0.0004905033274553716,4.359012118834443,15.692443627803994,0.48480311036109924,-0.0031916536390781403,0.0,False,1,0.0,,,60.0,40.0,80.0,5.0
35.704527844907716,1508,269.337890625,331.0700378417969,-0.0012318419758230448,0.7225639820098877,0.06320656836032867,0.008246682584285736,4.407715320587158,0.03415293991565704,-0.0003895854752045125,4.407847651906821,15.868251546864556,0.48633429408073425,-0.01640813611447811,0.0,False,1,0.0,,,60.0,40.0,80.0,5.0
35.73573231440969,1509,269.4762878417969,331.07135009765625,-0.0012268066639080644,0.7003633379936218,0.06257136166095734,0.006894117221236229,4.452739238739014,0.04445750638842583,0.00012360095570329577,4.4529611735740025,16.03066022486641,0.48500335216522217,-0.0017447173595428467,0.0,False,1,0.0,,,60.0,40.0,80.0,5.0
35.76920128357597,1510,269.6263427734375,331.0727233886719,-0.0012427520705386996,0.683746337890625,0.06185419112443924,0.005355827044695616,4.500327110290527,0.04405445605516434,-0.00038182258140295744,4.500542749547291,16.20195389837025,0.4866847097873688,-0.004803771153092384,0.0,False,1,0.0,,,60.0,40.0,80.0,5.0
35.798340684967116,1511,269.7582702636719,331.07330322265625,-0.001287765451706946,0.6369715332984924,0.06108921021223068,0.013204027898609638,4.540666580200195,0.01711178943514824,-0.0011600588914006948,4.540698971702621,16.346516298129437,0.4853406548500061,-0.02702805958688259,0.0,False,1,0.0,,,60.0,40.0,80.0,5.0
35.833456724183634,1512,269.91876220703125,331.0739440917969,-0.0012804031139239669,0.579855740070343,0.06021494418382645,0.015421761199831963,4.589173316955566,0.02014511078596115,0.00023944854910951108,4.589217538522351,16.521183138680463,0.4868939518928528,-0.012479983270168304,0.0,False,1,0.0,,,60.0,40.0,80.0,5.0
35.86480501969345,1513,270.0634460449219,331.07489013671875,-0.0012502288445830345,0.5545397996902466,0.05948411300778389,0.0102074034512043,4.631814002990723,0.03342490270733833,0.000749831204302609,4.6319346654145255,16.674964795492293,0.4889313876628876,-0.0007532425224781036,0.0,False,1,0.0,,,60.0,40.0,80.0,5.0
35.89631248568185,1514,270.210205078125,331.0764465332031,-0.0012399291153997183,0.5623694062232971,0.05876694619655609,0.0007332104141823947,4.67397403717041,0.05251775309443474,0.0001683378213783726,4.6742690811367265,16.827368692092215,0.4883612394332886,0.010299243032932281,0.0,False,1,0.0,,,60.0,40.0,80.0,5.0
35.92857592483051,1515,270.36187744140625,331.0782470703125,-0.0012422943254932761,0.5772990584373474,0.058015622198581696,-0.0036010739859193563,4.716963291168213,0.05305398255586624,-1.0042190297099296e-05,4.717261643728737,16.98214191742345,0.4874057471752167,0.0032641924917697906,0.0,False,1,0.0,,,60.0,40.0,80.0,5.0
35.96073810313828,1516,270.5144348144531,331.080078125,-0.0012415313394740224,0.5937175154685974,0.05728479474782944,-0.005828857421875,4.759092330932617,0.05775972083210945,6.097316509112716e-05,4.759442824891374,17.133994169608947,0.487790584564209,0.005572661757469177,0.0,False,1,0.0,,,60.0,40.0,80.0,5.0
35.99197606113739,1517,270.66387939453125,331.0817565917969,-0.0012357330415397882,0.6004751324653625,0.05658811330795288,-0.004241943359375,4.799570560455322,0.05188613757491112,0.0001473665179219097,4.799851014123121,17.279463650843237,0.4884577691555023,-0.0014352202415466309,0.0,False,1,0.0,,,60.0,40.0,80.0,5.0
36.021625741617754,1518,270.8069152832031,331.0832214355469,-0.0012947464128956199,0.5995357036590576,0.05591875687241554,-0.0021667478140443563,4.837421894073486,0.049894142895936966,-0.0016762446612119675,4.83767948675323,17.41564615231163,0.4873255491256714,-0.0014352202415466309,0.0,False,1,0.0,,,60.0,40.0,80.0,5.0
36.052036128239706,1519,270.9547424316406,331.0849609375,-0.0012649917043745518,0.6056553721427917,0.055242568254470825,-0.0031433103140443563,4.8758225440979,0.05678143352270126,0.0008596419938839972,4.8761532330014585,17.55415163880525,0.4928249418735504,0.0046633146703243256,0.0,False,1,0.0,,,60.0,40.0,80.0,5.0
36.0824948635418,1520,271.1039733886719,331.0868225097656,-0.0012458419660106301,0.6204721927642822,0.05459369719028473,-0.005279541015625,4.914077281951904,0.062374237924814224,0.0005690527032129467,4.914473156135203,17.69210336208673,0.49038171768188477,0.0061826445162296295,0.0,False,1,0.0,,,60.0,40.0,80.0,5.0
36.11431628209539,1521,271.26116943359375,331.0887145996094,-0.001243171631358564,0.6313194632530212,0.05395849049091339,-0.004608154296875,4.953681468963623,0.059077341109514236,6.7563058109954e-05,4.954033733509587,17.834521440634514,0.4901143014431,0.0008154846727848053,0.0,False,1,0.0,,,60.0,40.0,80.0,5.0
36.14237840031274,1522,271.40081787109375,331.09002685546875,-0.0012825775193050504,0.6212131381034851,0.05338475480675697,0.0005756936152465641,4.9880218505859375,0.04550257697701454,-0.0012318610679358244,4.988229544028222,17.9576263585016,0.48797520995140076,-0.009817726910114288,0.0,False,1,0.0,,,60.0,40.0,80.0,5.0
36.17595455353148,1523,271.5691223144531,331.0917053222656,-0.0012042236048728228,0.6118598580360413,0.052633434534072876,0.001601216266863048,5.02833366394043,0.051388103514909744,0.004259843844920397,5.028598047107069,18.10295296958545,0.48872047662734985,0.0002225525677204132,0.0,False,1,0.0,,,60.0,40.0,80.0,5.0
36.20483600278385,1524,271.7149963378906,331.0932312011719,-0.001118888845667243,0.6110230684280396,0.05195724591612816,0.0005311995628289878,5.062506675720215,0.053713712841272354,0.0023893928155303,5.062792185529341,18.22605186790563,0.48832979798316956,0.0006227754056453705,0.0,False,1,0.0,,,60.0,40.0,80.0,5.0
36.23710292135365,1525,271.87890625,331.09515380859375,-0.0010739135323092341,0.6322694420814514,0.050379473716020584,-0.002197265625,5.082967281341553,0.059748366475105286,0.0010743855964392424,5.083318542526092,18.29994675309393,0.49041885137557983,0.004457045346498489,0.0,False,1,0.0,,,60.0,40.0,80.0,5.0
36.26697649923153,1526,272.02947998046875,331.09686279296875,-0.0010680388659238815,0.5913755893707275,0.04028445482254028,-0.0032958984375,5.021296501159668,0.06048034131526947,0.00043842315790243447,5.021660742867722,18.0779786743238,0.4924885928630829,0.0038505904376506805,0.0,False,1,0.0,,,60.0,40.0,80.0,5.0
36.29730212432332,1527,272.18121337890625,331.0987854003906,-0.0011040496174246073,0.6158550977706909,0.030018679797649384,-0.00396728515625,5.015751361846924,0.06272516399621964,-0.0035526943393051624,5.0161448136696265,18.058121329210657,0.49210190773010254,0.006357736885547638,0.0,False,1,0.0,,,60.0,40.0,80.0,5.0
36.327113586710766,1528,272.3322448730469,331.1007080078125,-0.001095466548576951,0.6294859647750854,0.030346529558300972,-0.004119872581213713,5.091075897216797,0.06375130265951157,0.00014677047147415578,5.0914750359158365,18.329310129297014,0.49107712507247925,0.003599945455789566,0.0,False,1,0.0,,,60.0,40.0,80.0,5.0
36.359614121960476,1529,272.4984130859375,331.10302734375,-0.0010927581461146474,0.6658395528793335,0.03272343426942825,-0.007232665549963713,5.130429744720459,0.07374542951583862,-6.0729980759788305e-05,5.130959730652253,18.47145503034811,0.48942863941192627,0.010278556495904922,0.0,False,1,0.0,,,60.0,40.0,80.0,5.0
36.390772878425196,1530,272.6567687988281,331.1053466796875,-0.001103095943108201,0.6722055077552795,0.027716906741261482,-0.007537841331213713,5.108074188232422,0.07307793200016022,-0.00017273426055908203,5.108596903893363,18.39094885401611,0.4876593351364136,0.00521475076675415,0.0,False,1,0.0,,,60.0,40.0,80.0,5.0
36.42243717168458,1531,272.8170166015625,331.10784912109375,-0.0011183929163962603,0.6757811307907104,0.02078426443040371,-0.0106201171875,5.08702278137207,0.08427197486162186,-0.0001889276463771239,5.087720764707824,18.315794752948168,0.48694908618927,0.015940386801958084,0.0,False,1,0.0,,,60.0,40.0,80.0,5.0
36.45049271848984,1532,272.95758056640625,331.1103820800781,-0.0011360549833625555,0.6701138019561768,0.010436528362333775,-0.01461792178452015,4.964784622192383,0.09101428091526031,-0.00011024474952137098,4.9656187888562675,17.876227639882565,0.4894849359989166,0.021165132522583008,0.0,False,1,0.0,,,60.0,40.0,80.0,5.0
36.48105692793615,1533,273.11236572265625,331.1136169433594,-0.0011525345034897327,0.70542311668396,0.012574377469718456,-0.019989013671875,5.108020305633545,0.10846086591482162,0.00036330698640085757,5.109171687680066,18.393018075648236,0.48919346928596497,0.024934105575084686,0.0,False,1,0.0,,,60.0,40.0,80.0,5.0
36.51707799290307,1534,273.2976989746094,331.1180419921875,-0.0011309051187708974,0.7990154027938843,0.02046324498951435,-0.02478027530014515,5.1003265380859375,0.11861339211463928,0.00026136398082599044,5.101705597170789,18.366140149814843,0.48864230513572693,0.027378562837839127,0.0,False,1,0.0,,,60.0,40.0,80.0,5.0
36.54707385157235,1535,273.4514465332031,331.1213073730469,-0.0011299896286800504,0.8528003096580505,0.018967434763908386,-0.0182800255715847,5.140980243682861,0.10714899748563766,-2.7608870368567295e-05,5.142096729385973,18.511548225789504,0.4858821630477905,0.007923059165477753,0.0,False,1,0.0,,,60.0,40.0,80.0,5.0
36.57915737037547,1536,273.6156005859375,331.1254577636719,-0.0011368178529664874,0.974324643611908,0.016973018646240234,-0.023712158203125,5.1547532081604,0.1363058090209961,-5.275249350233935e-05,5.156555043184901,18.563598155465645,0.48537135124206543,0.03715566173195839,0.0,False,1,0.0,,,60.0,40.0,80.0,5.0
36.60646051657386,1537,273.7545166015625,331.1295166015625,-0.0011427688878029585,1.1097593307495117,0.011201509274542332,-0.027923583984375,5.052792072296143,0.14012867212295532,0.00010050773562397808,5.054734788365408,18.19704523811547,0.4836042523384094,0.028909210115671158,0.0,False,1,0.0,,,60.0,40.0,80.0,5.0
36.63655739580281,1538,273.9079895019531,331.1341857910156,-0.0011429977603256702,1.2479966878890991,0.008749471977353096,-0.03057861141860485,5.076133728027344,0.15189968049526215,9.352206689072773e-05,5.078405965113238,18.282261474407658,0.4871286153793335,0.02760494127869606,0.0,False,1,0.0,,,60.0,40.0,80.0,5.0
36.665083094732836,1539,274.0539855957031,331.1387023925781,-0.0011407089186832309,1.3468343019485474,0.009336868301033974,-0.0297851525247097,5.138277530670166,0.1560656577348709,2.0179748389637098e-05,5.140647086906602,18.50632951286377,0.48440343141555786,0.018666744232177734,0.0,False,1,0.0,,,60.0,40.0,80.0,5.0
36.69804208655842,1540,274.222900390625,331.14361572265625,-0.001142806955613196,1.455146312713623,0.010880490764975548,-0.0215454064309597,5.170558452606201,0.14300154149532318,-0.0002402210229774937,5.1725355687896055,18.621128047642582,0.4862745702266693,0.0014855973422527313,0.0,False,1,0.0,,,60.0,40.0,80.0,5.0
36.73831486632116,1541,274.4300842285156,331.14886474609375,-0.0011592102237045765,1.5292060375213623,0.011672792956233025,-0.008148193359375,5.120372295379639,0.12434599548578262,-0.0005445670685730875,5.121881945773252,18.438775004783707,0.4860116243362427,-0.010819995775818825,0.0,False,1,0.0,,,60.0,40.0,80.0,5.0
36.768760605948046,1542,274.5875549316406,331.1525573730469,-0.0011741637717932463,1.5496487617492676,0.013434980995953083,-0.0021362302359193563,5.1475701332092285,0.11949428170919418,-0.0005568981287069619,5.14895693027281,18.536244948982116,0.4828377068042755,-0.010819995775818825,0.0,False,1,0.0,,,60.0,40.0,80.0,5.0
36.81197353755124,1543,274.8117980957031,331.15789794921875,-0.0011907195439562201,1.565095067024231,0.015231320634484291,-0.001739501953125,5.217599868774414,0.12568871676921844,-0.0003201770596206188,5.2191135403123035,18.788808745124292,0.4839308559894562,-0.00485605001449585,0.0,False,1,0.0,,,60.0,40.0,80.0,5.0
36.85153851960786,1544,275.0161437988281,331.16278076171875,-0.0012048721546307206,1.6028088331222534,0.011078566312789917,-0.0011291502742096782,5.206829071044922,0.12365403771400452,-0.00017874717013910413,5.208297162035981,18.749869783329533,0.484485924243927,-0.008167291060090065,0.0,False,1,0.0,,,60.0,40.0,80.0,5.0
36.8870646127034,1545,275.20013427734375,331.1676025390625,-0.0012077331775799394,1.654940128326416,0.010696075856685638,-0.006805418990552425,5.220004081726074,0.1402284801006317,2.996444709424395e-05,5.221887268102029,18.798794165167305,0.4810246229171753,0.004387117922306061,0.0,False,1,0.0,,,60.0,40.0,80.0,5.0
36.928652364062145,1546,275.41607666015625,331.1737060546875,-0.001202278072014451,1.735361933708191,0.010791698470711708,-0.010467528365552425,5.1811203956604,0.14460599422454834,0.00014268874656409025,5.183137994328718,18.659296779583386,0.48384666442871094,-0.0008578822016716003,0.0,False,1,0.0,,,60.0,40.0,80.0,5.0
36.967689770506695,1547,275.61932373046875,331.17901611328125,-0.0012015152024105191,1.7670232057571411,0.009876453317701817,-0.00433349609375,5.164549350738525,0.13094288110733032,-4.5518874685512856e-05,5.166209058526221,18.598352610694395,0.48384571075439453,-0.016115354374051094,0.0,False,1,0.0,,,60.0,40.0,80.0,5.0
37.00197223504074,1548,275.79779052734375,331.1828918457031,-0.0012072372483089566,1.7561458349227905,0.009015848860144615,0.0063798753544688225,5.188023090362549,0.10960772633552551,-5.6238171964650974e-05,5.189180806540676,18.681050903546435,0.4849320352077484,-0.03108433075249195,0.0,False,1,0.0,,,60.0,40.0,80.0,5.0
37.034093148307875,1549,275.9658203125,331.1867980957031,-0.00120372767560184,1.7517465353012085,0.011133207939565182,0.0032171900384128094,5.221471309661865,0.1269005984067917,-2.742767355812248e-05,5.223013153367535,18.802847352123123,0.48708298802375793,-0.005225686356425285,0.0,False,1,0.0,,,60.0,40.0,80.0,5.0
37.06846390222199,1550,276.14654541015625,331.1911926269531,-0.0012039184803143144,1.7526817321777344,0.013633056543767452,0.0009798167739063501,5.234048843383789,0.12632706761360168,-0.0001050090795615688,5.2355731141839605,18.848063211062257,0.4847061038017273,-0.013568848371505737,0.0,False,1,0.0,,,60.0,40.0,80.0,5.0
37.11047875811346,1551,276.3685607910156,331.1971740722656,-0.0012003326555714011,1.7698861360549927,0.017294038087129593,-0.007080077659338713,5.32043981552124,0.14738357067108154,9.716033673612401e-05,5.3224807897189805,19.160930842988332,0.48677265644073486,0.0005556866526603699,0.0,False,1,0.0,,,60.0,40.0,80.0,5.0
37.14024667744525,1552,276.5250244140625,331.2019348144531,-0.0011998367263004184,1.8373370170593262,0.012697321362793446,-0.01428222469985485,5.212234973907471,0.15842284262180328,0.0002795410109683871,5.214642010572899,18.772711238062435,0.48782098293304443,0.009374585002660751,0.0,False,1,0.0,,,60.0,40.0,80.0,5.0
37.17028932203539,1553,276.6839599609375,331.2079162597656,-0.0011843490647152066,1.942116618156433,0.01423411350697279,-0.0308837890625,5.277215480804443,0.20498572289943695,0.0006098508602008224,5.281195200837851,19.012302723016262,0.49212101101875305,0.03878798708319664,0.0,False,1,0.0,,,60.0,40.0,80.0,5.0
37.207039463566616,1554,276.8794860839844,331.2173767089844,-0.001147804199717939,2.1513633728027344,0.016392452642321587,-0.056640613824129105,5.272153854370117,0.256762832403183,0.0010882854694500566,5.278402656165845,19.002249562197044,0.49529707431793213,0.055478330701589584,0.0,False,1,0.0,,,60.0,40.0,80.0,5.0
37.25309585337527,1555,277.1251525878906,331.2314453125,-0.0010956954210996628,2.477221965789795,0.01814781129360199,-0.0754699558019638,5.371156692504883,0.3143709599971771,0.000992193236015737,5.380348901361041,19.369256044899746,0.49739527702331543,0.05616120621562004,0.0,False,1,0.0,,,60.0,40.0,80.0,5.0
37.28350540925749,1556,277.2882995605469,331.2419738769531,-0.0010647964663803577,2.7229554653167725,0.021207736805081367,-0.0841979905962944,5.407753944396973,0.35010281205177307,0.0008157729753293097,5.419075139507951,19.508670502228625,0.4950699508190155,0.0596432201564312,0.0,False,1,0.0,,,60.0,40.0,80.0,5.0
37.31166889262386,1557,277.4395446777344,331.2518615722656,-0.0010479736374691129,2.936229705810547,0.02024468034505844,-0.079071044921875,5.331063270568848,0.33938589692115784,0.00047224044101312757,5.341855352295514,19.230679268263852,0.4914887249469757,0.03121482953429222,0.0,False,1,0.0,,,60.0,40.0,80.0,5.0
37.34495818358846,1558,277.6194152832031,331.2637023925781,-0.0010420989710837603,3.142662525177002,0.021952226758003235,-0.07098388671875,5.3748393058776855,0.3488331139087677,-2.555847095209174e-05,5.386147241398088,19.39013006903312,0.4909924864768982,0.02970297262072563,0.0,False,1,0.0,,,60.0,40.0,80.0,5.0
37.380117853404954,1559,277.8103332519531,331.2762451171875,-0.001048774691298604,3.3212509155273438,0.02319532074034214,-0.0613403394818306,5.3923139572143555,0.3513181507587433,-0.00034525871160440147,5.403746327819697,19.453486780150907,0.4947585463523865,0.020227082073688507,0.0,False,1,0.0,,,60.0,40.0,80.0,5.0
37.426668220432475,1560,278.0639343261719,331.29437255859375,-0.0010616302024573088,3.5681090354919434,0.023721246048808098,-0.0657653659582138,5.481332778930664,0.3991653621196747,-0.00017885207489598542,5.495847710015622,19.785051756056237,0.4927949905395508,0.03961445763707161,0.0,False,1,0.0,,,60.0,40.0,80.0,5.0
37.45591509458609,1561,278.2225646972656,331.3065185546875,-0.0010698317782953382,3.765101432800293,0.018755698576569557,-0.0678710862994194,5.383937358856201,0.40732404589653015,-1.52587890625e-05,5.399323509726551,19.437564635015583,0.49273234605789185,0.03961445763707161,0.0,False,1,0.0,,,60.0,40.0,80.0,5.0
37.49360535782762,1562,278.42791748046875,331.3213195800781,-0.0010809325613081455,3.926213264465332,0.016925208270549774,-0.0493163987994194,5.401601314544678,0.3826679289340973,-0.0004547977296169847,5.415139122124794,19.49450083964926,0.4897831678390503,-0.0014664940536022186,0.0,False,1,0.0,,,60.0,40.0,80.0,5.0
37.526673023821786,1563,278.6090087890625,331.3334655761719,-0.0011027908185496926,3.9885241985321045,0.01829124614596367,-0.0296630859375,5.452948093414307,0.3615405559539795,-0.0008615779806859791,5.46492042260332,19.67371352137195,0.48584356904029846,-0.017806509509682655,0.0,False,1,0.0,,,60.0,40.0,80.0,5.0
37.55620392342098,1564,278.77197265625,331.34344482421875,-0.001128883333876729,3.956495761871338,0.021679019555449486,-0.00933837890625,5.539989471435547,0.3355862498283386,-0.0011104869190603495,5.550144386218412,19.980519790386285,0.4852501451969147,-0.035452038049697876,0.0,False,1,0.0,,,60.0,40.0,80.0,5.0
37.589049394475296,1565,278.9543151855469,331.3542785644531,-0.001158485421910882,3.9214987754821777,0.026740189641714096,0.0004888318944722414,5.60630989074707,0.3346298933029175,-0.0010152054019272327,5.616287812000232,20.218636123200838,0.48178210854530334,-0.022687561810016632,0.0,False,1,0.0,,,60.0,40.0,80.0,5.0
37.62319334154017,1566,279.14520263671875,331.36572265625,-0.001180191058665514,3.867396831512451,0.029069283977150917,0.001712876372039318,5.586396217346191,0.33752965927124023,-0.0005418872460722923,5.596583713454966,20.14770136843788,0.4832054376602173,-0.0158565491437912,0.0,False,1,0.0,,,60.0,40.0,80.0,5.0
37.65246579912491,1567,279.30828857421875,331.375,-0.001194648677483201,3.8297181129455566,0.024930188432335854,0.009501500986516476,5.561774253845215,0.31311896443367004,-0.0001468467671656981,5.570581330362881,20.05409278930637,0.484820693731308,-0.04212099313735962,0.0,False,1,0.0,,,60.0,40.0,80.0,5.0
37.68673198786564,1568,279.4986572265625,331.3857421875,-0.0012009810889139771,3.736042022705078,0.019179170951247215,0.009699913673102856,5.555446147918701,0.31870609521865845,5.0830840336857364e-05,5.564580440620661,20.03248958623438,0.4840148687362671,-0.015088651329278946,0.0,False,1,0.0,,,60.0,40.0,80.0,5.0
37.723422562005,1569,279.7020568847656,331.3973388671875,-0.0012077712453901768,3.6508448123931885,0.013291547074913979,0.008060581982135773,5.5380449295043945,0.3168812394142151,7.228851245599799e-06,5.5471033306721695,19.969571990419812,0.4850810170173645,-0.015088651329278946,0.0,False,1,0.0,,,60.0,40.0,80.0,5.0
37.754086257191375,1570,279.8722839355469,331.4070739746094,-0.0012098693987354636,3.593318462371826,0.01169328298419714,0.005755818914622068,5.562676906585693,0.32225269079208374,-2.7079580831923522e-05,5.572003334934198,20.059212005763115,0.4847892224788666,-0.008505182340741158,0.0,False,1,0.0,,,60.0,40.0,80.0,5.0
37.78088114899583,1571,280.0213623046875,331.41522216796875,-0.0012099838349968195,3.5039079189300537,0.011099056340754032,0.010541707277297974,5.560311794281006,0.30477872490882874,8.468627493130043e-05,5.568658485483669,20.04717054774121,0.4858430027961731,-0.030002005398273468,0.0,False,1,0.0,,,60.0,40.0,80.0,5.0
37.81486699846573,1572,280.2102966308594,331.42547607421875,-0.0012065886985510588,3.430344820022583,0.009432490915060043,0.012668890878558159,5.561532974243164,0.3032354712486267,0.0001761531748343259,5.569793605300589,20.051256979082122,0.4865444302558899,-0.014668507501482964,0.0,False,1,0.0,,,60.0,40.0,80.0,5.0
37.84894841280766,1573,280.3999328613281,331.4355773925781,-0.0012029266217723489,3.363417625427246,0.008298679254949093,0.01304701715707779,5.564878463745117,0.29953470826148987,0.00013061522622592747,5.572934000575267,20.062562402070963,0.4865444302558899,-0.014668507501482964,0.0,False,1,0.0,,,60.0,40.0,80.0,5.0
37.884992306353524,1574,280.6003723144531,331.4460144042969,-0.0012005233438685536,3.2872700691223145,0.006536490749567747,0.01572616584599018,5.558265209197998,0.2887306213378906,0.00014539717813022435,5.5657593847218525,20.03673378499867,0.4878601133823395,-0.020081304013729095,0.0,False,1,0.0,,,60.0,40.0,80.0,5.0
37.91917073098011,1575,280.7904357910156,331.4557800292969,-0.001197395264171064,3.222944974899292,0.005423170048743486,0.01496817171573639,5.563586711883545,0.28928130865097046,9.179115295410156e-05,5.571102295291982,20.055968263051135,0.48951593041419983,-0.010661255568265915,0.0,False,1,0.0,,,60.0,40.0,80.0,5.0
37.950979185523465,1576,280.9678649902344,331.4644775390625,-0.0011923599522560835,3.153174638748169,0.006625283043831587,0.01966349594295025,5.587555885314941,0.2720233201980591,0.0001563787373015657,5.59417352990623,20.139024707662426,0.4896223545074463,-0.02677583321928978,0.0,False,1,0.0,,,60.0,40.0,80.0,5.0
37.98085257341154,1577,281.1346740722656,331.47222900390625,-0.001185569679364562,3.1122403144836426,0.006666264496743679,0.024272173643112183,5.575407028198242,0.26022857427597046,0.00024849892361089587,5.581476731359164,20.09331623289299,0.4915258288383484,-0.025852221995592117,0.0,False,1,0.0,,,60.0,40.0,80.0,5.0
38.01557520707138,1578,281.3283386230469,331.4810791015625,-0.0011792754521593451,3.017244815826416,0.005655396264046431,0.024633411318063736,5.581178665161133,0.25617656111717224,0.0001779937738319859,5.58705483726421,20.11339741415116,0.4897829592227936,-0.018568217754364014,0.0,False,1,0.0,,,60.0,40.0,80.0,5.0
38.04633796331473,1579,281.50067138671875,331.4886169433594,-0.001172027550637722,2.926820993423462,0.007711282931268215,0.02756417542695999,5.615549564361572,0.2431657761335373,0.00015711307059973478,5.620811910139725,20.23492287650301,0.4867996275424957,-0.026992637664079666,0.0,False,1,0.0,,,60.0,40.0,80.0,5.0
38.07455533114262,1580,281.6592102050781,331.4949951171875,-0.001164512592367828,2.803279161453247,0.00916611310094595,0.031802594661712646,5.612740516662598,0.22960588335990906,0.00022732734214514494,5.61743491468634,20.222765692870826,0.48618414998054504,-0.030839160084724426,0.0,False,1,0.0,,,60.0,40.0,80.0,5.0
38.10296006058343,1581,281.81842041015625,331.5013732910156,-0.0011607741471379995,2.7531981468200684,0.0075883399695158005,0.03193185478448868,5.600500583648682,0.2249777913093567,0.000166034689755179,5.60501755765307,20.17806320755105,0.48379600048065186,-0.02058892324566841,0.0,False,1,0.0,,,60.0,40.0,80.0,5.0
38.13260734011419,1582,281.9841003417969,331.5075988769531,-0.0011611938243731856,2.6245365142822266,0.004576226696372032,0.03302508965134621,5.58420467376709,0.21329879760742188,0.00010559082147665322,5.58827685666453,20.11779668399231,0.4818715751171112,-0.028404608368873596,0.0,False,1,0.0,,,60.0,40.0,80.0,5.0
38.16354761016555,1583,282.1576843261719,331.5138854980469,-0.0011563492007553577,2.5315299034118652,0.005716868210583925,0.03477225452661514,5.625642776489258,0.203324556350708,0.00011632442328846082,5.629315903145989,20.26553725132556,0.4849548637866974,-0.02614549547433853,0.0,False,1,0.0,,,60.0,40.0,80.0,5.0
38.20017565158196,1584,282.3638916015625,331.5213317871094,-0.0011525345034897327,2.434666156768799,0.007636151276528835,0.0306765865534544,5.626047611236572,0.20584551990032196,-3.0088423955021426e-05,5.629812084152462,20.267323502948866,0.48441699147224426,-0.013789862394332886,0.0,False,1,0.0,,,60.0,40.0,80.0,5.0
38.24037914467044,1585,282.5908203125,331.5294494628906,-0.0011544418521225452,2.3710696697235107,0.009814981371164322,0.026622358709573746,5.657687187194824,0.20309409499168396,-0.00014732837735209614,5.661331251682295,20.380792506056263,0.48441699147224426,-0.013789862394332886,0.0,False,1,0.0,,,60.0,40.0,80.0,5.0
38.271175149129704,1586,282.76568603515625,331.5357360839844,-0.0011557769030332565,2.319380283355713,0.013189094141125679,0.0226117093116045,5.690123081207275,0.2065940946340561,-0.00021049499628134072,5.693872306570775,20.49794030365479,0.4820670485496521,-0.007705233991146088,0.0,False,1,0.0,,,60.0,40.0,80.0,5.0
38.30461128731258,1587,282.956298828125,331.54241943359375,-0.0011590194189921021,2.263601303100586,0.0158255472779274,0.02246120013296604,5.704075813293457,0.1970311850309372,-0.0001632022758712992,5.70747774400471,20.546919878416958,0.48542487621307373,-0.01668594218790531,0.0,False,1,0.0,,,60.0,40.0,80.0,5.0
38.33786930073984,1588,283.1462707519531,331.548828125,-0.0011619186261668801,2.2067155838012695,0.016583697870373726,0.022132258862257004,5.716320037841797,0.19336260855197906,-9.222030348610133e-05,5.7195894854370675,20.590522147573445,0.48606985807418823,-0.012936389073729515,0.0,False,1,0.0,,,60.0,40.0,80.0,5.0
38.36752105248161,1589,283.3155822753906,331.5539245605469,-0.0011648559011518955,2.1008901596069336,0.014746377244591713,0.027167873457074165,5.702157020568848,0.1739601045846939,4.1093826439464465e-05,5.704809971147016,20.537315896129257,0.4864804744720459,-0.030590130016207695,0.0,False,1,0.0,,,60.0,40.0,80.0,5.0
38.39597178553231,1590,283.4775085449219,331.5587463378906,-0.0011661910684779286,2.069011926651001,0.011003433726727962,0.028671838343143463,5.687865257263184,0.1681729406118393,0.00013257026148494333,5.690350897819087,20.485263232148714,0.48083680868148804,-0.018492694944143295,0.0,False,1,0.0,,,60.0,40.0,80.0,5.0
38.423492945032194,1591,283.6339111328125,331.5635070800781,-0.0011689376551657915,1.9923728704452515,0.007964000105857849,0.023220261558890343,5.682515621185303,0.17824487388134003,-2.714157017180696e-05,5.6853104594926585,20.46711765417357,0.4813932776451111,-0.0007803179323673248,0.0,False,1,0.0,,,60.0,40.0,80.0,5.0
38.45247363788076,1592,283.79833984375,331.5688171386719,-0.0011778640327975154,1.9984248876571655,0.004965547472238541,0.016751188784837723,5.670690059661865,0.1825322061777115,-0.00024508475326001644,5.6736270426515105,20.425057353545437,0.4801040291786194,-0.0006357990205287933,0.0,False,1,0.0,,,60.0,40.0,80.0,5.0
38.483945016982034,1593,283.9774475097656,331.5746765136719,-0.001185569679364562,1.9739115238189697,0.005648565944284201,0.012072468176484108,5.705238342285156,0.18668021261692047,-0.0002807187847793102,5.7082916991746675,20.549850117028804,0.48251932859420776,-0.0016165375709533691,0.0,False,1,0.0,,,60.0,40.0,80.0,5.0
38.518835292430595,1594,284.1767883300781,331.5819091796875,-0.0011962509015575051,1.9918384552001953,0.007752264384180307,-0.0003662109375,5.713712692260742,0.21218180656433105,-0.0004756450653076172,5.717651097695332,20.583543951703195,0.4771546423435211,0.021240387111902237,0.0,False,1,0.0,,,60.0,40.0,80.0,5.0
38.553057031007484,1595,284.3724670410156,331.5901184082031,-0.0012023544404655695,2.0643370151519775,0.008530905470252037,-0.01617431826889515,5.721164226531982,0.24339546263217926,6.806373130530119e-05,5.726339272415834,20.614821380697002,0.4824845790863037,0.03516574576497078,0.0,False,1,0.0,,,60.0,40.0,80.0,5.0
38.590263900579885,1596,284.5851745605469,331.5993957519531,-0.0011940764961764216,2.1582634449005127,0.007602000143378973,-0.02142333798110485,5.712558269500732,0.2474929690361023,0.00028059957548975945,5.717917001050262,20.584501203780945,0.47947824001312256,0.01780833676457405,0.0,False,1,0.0,,,60.0,40.0,80.0,5.0
38.62366593000479,1597,284.7762756347656,331.60797119140625,-0.0011864089174196124,2.2377092838287354,0.0074585662223398685,-0.02249145321547985,5.728219985961914,0.25531816482543945,0.0002067089080810547,5.733907185819449,20.642065868950016,0.4794863760471344,0.01780833676457405,0.0,False,1,0.0,,,60.0,40.0,80.0,5.0
38.658377127023414,1598,284.9753723144531,331.6158142089844,-0.0011868285946547985,2.25297474861145,0.007991320453584194,-0.005218505393713713,5.736260414123535,0.2150254249572754,-0.00028014183044433594,5.740289152168052,20.66504094780499,0.48415470123291016,-0.027484172955155373,0.0,False,1,0.0,,NONE,60.0,40.0,80.0,5.0
38.694209148408845,1599,285.18096923828125,331.6228942871094,-0.0012006377801299095,2.2093935012817383,0.007547358516603708,0.01001072023063898,5.73686408996582,0.19467173516750336,-0.00017039298836607486,5.740166086468776,20.664597911287593,0.4842446446418762,-0.023091182112693787,0.0,False,1,0.0,,NONE,60.0,40.0,80.0,5.0
38.72268146765418,1600,285.3442077636719,331.62799072265625,-0.0012005995959043503,2.118762254714966,0.006092528346925974,0.017743108794093132,5.72926139831543,0.1815238893032074,0.0001537895150249824,5.732136348366659,20.63569085411997,0.484570175409317,-0.024849317967891693,0.0,False,1,0.0,,NONE,60.0,40.0,80.0,5.0
38.75023076613434,1601,285.5019226074219,331.6328125,-0.0011963271535933018,2.090522527694702,0.004323509521782398,0.021321844309568405,5.72459602355957,0.17388391494750977,0.00026353835710324347,5.727236272259421,20.618050580133914,0.48099812865257263,-0.019543126225471497,0.0,False,1,0.0,,NONE,60.0,40.0,80.0,5.0
38.77883536671288,1602,285.66552734375,331.63720703125,-0.0011907195439562201,1.9797437191009521,0.0025339999701827765,0.026765378192067146,5.716883182525635,0.15695349872112274,0.00032456396729685366,5.719037316607316,20.588534339786335,0.4815337061882019,-0.031763359904289246,0.0,False,1,0.0,,NONE,60.0,40.0,80.0,5.0
38.81302896444686,1603,285.8612976074219,331.642333984375,-0.0011806488037109375,1.8897429704666138,0.0023837359622120857,0.02829507179558277,5.731680870056152,0.15191850066184998,0.00026364324730820954,5.733693826541383,20.641297775548978,0.48574569821357727,-0.019316159188747406,0.0,False,1,0.0,,NONE,60.0,40.0,80.0,5.0
38.843155077891424,1604,286.0347900390625,331.6463317871094,-0.0011685943463817239,1.7983022928237915,0.006024226546287537,0.03344472125172615,5.775625705718994,0.13159595429897308,0.00027221202617511153,5.777124705409195,20.797648939473103,0.48602619767189026,-0.0337153784930706,0.0,False,1,0.0,,NONE,60.0,40.0,80.0,5.0
38.88435820792802,1605,286.2735290527344,331.65167236328125,-0.0011526107555255294,1.7063080072402954,0.011577170342206955,0.030938033014535904,5.802497863769531,0.13443703949451447,0.00010726928303483874,5.804055029730914,20.89459810703129,0.4867832064628601,-0.014521218836307526,0.0,False,1,0.0,,NONE,60.0,40.0,80.0,5.0
38.9148299631197,1606,286.45098876953125,331.6556701660156,-0.0011477661319077015,1.6349748373031616,0.015204000286757946,0.027902869507670403,5.836297988891602,0.13269788026809692,-4.7497749619651586e-05,5.837806346978618,21.016102849123026,0.48485320806503296,-0.014521218836307526,0.0,False,1,0.0,,NONE,60.0,40.0,80.0,5.0
38.94239971716888,1607,286.61199951171875,331.6590576171875,-0.0011478423839434981,1.5421090126037598,0.016809094697237015,0.027642251923680305,5.834811687469482,0.12486819922924042,-7.323265162995085e-05,5.83614765926739,21.010131573362607,0.4835723638534546,-0.019833900034427643,0.0,False,1,0.0,,NONE,60.0,40.0,80.0,5.0
38.96989828464575,1608,286.7713928222656,331.662109375,-0.0017283248016610742,1.5364699363708496,-0.022546453401446342,0.10059837251901627,5.806828022003174,0.13525523245334625,-0.03839859366416931,5.808529943714046,20.910707797370566,0.4824208915233612,0.0020909421145915985,0.0,False,1,0.0,,NONE,60.0,40.0,80.0,5.0
39.00006174412556,1609,286.9446105957031,331.6643371582031,-0.004154090769588947,1.4848185777664185,-0.17105524241924286,0.3617624044418335,5.786827087402344,0.157369002699852,-0.09481979161500931,5.789742959353736,20.84307465367345,0.4836834669113159,0.0007466636598110199,0.0,False,1,0.0,,NONE,60.0,40.0,80.0,5.0
39.03939806413837,1610,287.1740417480469,331.6737060546875,0.0028669738676398993,1.1725460290908813,0.2649020552635193,-0.60504150390625,5.7864508628845215,-0.2399018406867981,0.4241052269935608,5.806929629787603,20.90494666723537,0.4854407012462616,-0.012528272345662117,0.0,False,1,0.0,,NONE,60.0,40.0,80.0,5.0
39.086393741192296,1611,287.4462585449219,331.65936279296875,0.003966178745031357,0.3775251507759094,0.23499947786331177,-0.1774902194738388,5.834743976593018,-0.15142443776130676,0.004252538550645113,5.836710093607866,21.01215633698832,0.48828795552253723,-0.03078494966030121,0.0,False,1,0.0,,NONE,60.0,40.0,80.0,5.0
39.11940505844541,1612,287.6390686035156,331.65496826171875,0.0037516020238399506,0.06192077696323395,0.2090311050415039,-0.1549377590417862,5.856435298919678,-0.09944324940443039,-0.009563498198986053,5.857287326978447,21.086234377122413,0.4821310043334961,-0.016260862350463867,0.0,False,1,0.0,,NONE,60.0,40.0,80.0,5.0
39.14880455401726,1613,287.8109130859375,331.65301513671875,0.003316802904009819,-0.0773925706744194,0.18165570497512817,-0.15740962326526642,5.845577716827393,-0.046183571219444275,-0.014823551289737225,5.8457789475306345,21.044804211110286,0.4822639226913452,0.02309548482298851,0.0,False,1,0.0,,NONE,60.0,40.0,80.0,5.0
39.192833413602784,1614,288.06805419921875,331.652099609375,0.0025653839111328125,-0.12200927734375,0.14401453733444214,-0.1544494777917862,5.850086688995361,-0.0030935287941247225,-0.016346445307135582,5.850110344681995,21.06039724085518,0.4859686493873596,0.021019212901592255,0.0,False,1,0.0,,NONE,60.0,40.0,80.0,5.0
39.22399136167951,1615,288.2507629394531,331.6519775390625,0.0020442961249500513,-0.11282344907522202,0.12435724586248398,-0.1404723972082138,5.88246488571167,0.0004886946408078074,-0.01573018915951252,5.8824859378756065,21.176949376352184,0.4876849949359894,0.005572203546762466,0.0,False,1,0.0,,NONE,60.0,40.0,80.0,5.0
39.25679648783989,1616,288.4440612792969,331.65155029296875,0.0015211867867037654,-0.11581417173147202,0.10769158601760864,-0.1166076511144638,5.902333736419678,-0.01148919202387333,-0.01484991516917944,5.902363599236476,21.248508957251314,0.4770767092704773,-0.008475091308355331,0.0,False,1,0.0,,NONE,60.0,40.0,80.0,5.0
39.29035756108351,1617,288.64227294921875,331.6513977050781,0.0010346221970394254,-0.1048583835363388,0.09233049303293228,-0.10198974609375,5.913654804229736,0.0038070606533437967,-0.013166136108338833,5.913670686167795,21.28921447020406,0.48378992080688477,0.012513820081949234,0.0,False,1,0.0,,NONE,60.0,40.0,80.0,5.0
39.32935881358571,1618,288.872314453125,331.6526184082031,0.0005491637857630849,-0.02304077334702015,0.0734313577413559,-0.10028076171875,5.8918633460998535,0.0412699393928051,-0.010732068680226803,5.892017657331875,21.211263566394752,0.49244603514671326,0.037032920867204666,0.0,False,1,0.0,,NONE,60.0,40.0,80.0,5.0
39.35907901194878,1619,289.0469055175781,331.6540832519531,0.0002483749412931502,0.060426972806453705,0.05916309356689453,-0.0956420823931694,5.87196159362793,0.05251897871494293,-0.008904075250029564,5.872203205162673,21.139931538585625,0.4871683120727539,0.02699315920472145,0.0,False,1,0.0,,NONE,60.0,40.0,80.0,5.0
39.38861142587848,1620,289.2198791503906,331.655029296875,-5.416869953478454e-06,0.11208434402942657,0.04667751118540764,-0.076080322265625,5.854897499084473,0.02685772068798542,-0.007700872141867876,5.854964164312017,21.077870991523262,0.4938189387321472,-0.014239680022001266,0.0,False,1,0.0,,NONE,60.0,40.0,80.0,5.0
39.41767261479981,1621,289.38970947265625,331.6554870605469,-0.00022537230688612908,0.11911330372095108,0.03657566010951996,-0.0575561448931694,5.843297481536865,0.014738951809704304,-0.006809892598539591,5.843320038220799,21.03595213759488,0.4932766556739807,-0.01032458245754242,0.0,False,1,0.0,,NONE,60.0,40.0,80.0,5.0
39.44676197250374,1622,289.5594177246094,331.65545654296875,-0.0004162597469985485,0.10723762959241867,0.02846139669418335,-0.0416564904153347,5.833505153656006,0.0012337052030488849,-0.00589204765856266,5.83350825969976,21.000629734919134,0.49632498621940613,-0.015716245397925377,0.0,False,1,0.0,,NONE,60.0,40.0,80.0,5.0
39.480224962579086,1623,289.75506591796875,331.6544189453125,-0.0005967330653220415,0.035447631031274796,0.024165207520127296,-0.01873779110610485,5.859443664550781,-0.03540165722370148,-0.004960403311997652,5.859552708268738,21.094389749767455,0.4981674551963806,-0.0382380448281765,0.0,False,1,0.0,,NONE,60.0,40.0,80.0,5.0
39.51003410969861,1624,289.9297180175781,331.65301513671875,-0.0007378387381322682,-0.0494689866900444,0.021330678835511208,-0.006652831099927425,5.853118896484375,-0.04128511995077133,-0.004319114610552788,5.853266091018145,21.07175792766532,0.5012849569320679,-0.020930398255586624,0.0,False,1,0.0,,NONE,60.0,40.0,80.0,5.0
39.54324322124012,1625,290.1246337890625,331.6512756347656,-0.0008589553763158619,-0.139251708984375,0.020121736451983452,0.00048560602590441704,5.882821083068848,-0.050850819796323776,-0.0032597158569842577,5.88304175805516,21.178950328998578,0.4934127628803253,-0.020930398255586624,0.0,False,1,0.0,,NONE,60.0,40.0,80.0,5.0
39.57463418249972,1626,290.3100891113281,331.6492004394531,-0.00093841552734375,-0.229156494140625,0.022150302305817604,0.0074390834197402,5.9222869873046875,-0.06448376178741455,-0.002231535967439413,5.922638457249055,21.321498446096598,0.4878443479537964,-0.024631116539239883,0.0,False,1,0.0,,NONE,60.0,40.0,80.0,5.0
39.60680689965375,1627,290.5013122558594,331.6466979980469,-0.0009906005579978228,-0.32818603515625,0.024943849071860313,0.01416853629052639,5.953060626983643,-0.07794422656297684,-0.0014644622569903731,5.95357105237244,21.432855788540785,0.49509501457214355,-0.025655284523963928,0.0,False,1,0.0,,NONE,60.0,40.0,80.0,5.0
39.63845707033761,1628,290.69036865234375,331.6447448730469,-0.001027603168040514,-0.3826598823070526,0.027252452448010445,0.00608561048284173,5.984165668487549,-0.05264529958367348,-0.0012604474322870374,5.9843973685076275,21.54383052662746,0.4927746653556824,0.009345605969429016,0.0,False,1,0.0,,NONE,60.0,40.0,80.0,5.0
39.670139252441004,1629,290.88055419921875,331.64251708984375,-0.0010617828229442239,-0.4370421767234802,0.029014641419053078,0.00915544107556343,6.0117106437683105,-0.07492564618587494,-0.0009796142112463713,6.01217761518217,21.643839414655815,0.4890385568141937,-0.023790128529071808,0.0,False,1,0.0,,NONE,60.0,40.0,80.0,5.0
39.70359629322775,1630,291.0820007324219,331.6392517089844,-0.0010834502754732966,-0.5313109755516052,0.029103433713316917,0.02045935019850731,6.025325775146484,-0.1011306568980217,-0.0004520034708548337,6.026174434142804,21.694227962914095,0.4914701282978058,-0.03332244232296944,0.0,False,1,0.0,,NONE,60.0,40.0,80.0,5.0
39.73886880208738,1631,291.2945556640625,331.63507080078125,-0.0010937880724668503,-0.650848388671875,0.026630906388163567,0.02830113098025322,6.026249885559082,-0.11682454496622086,-0.00011217116843909025,6.027382157295967,21.69857576626548,0.49169856309890747,-0.028872475028038025,0.0,False,1,0.0,,NONE,60.0,40.0,80.0,5.0
