time_stamp,frame,x,y,z,yaw,pitch,roll,vx,vy,vz,speed_mps,speed_kmh,throttle,steer,brake,reverse,gear,collision_impulse,collision_with,lane_invasion,weather_cloud,weather_rain,weather_wetness,weather_fog
40.19632655731402,1670,266.86376953125,330.9981689453125,-0.0012306213611736894,0.0026436548214405775,0.06141705811023712,0.00015367649029940367,3.398895502090454,-0.004025693517178297,-0.0001778697915142402,3.3988978907841108,12.2360324068228,0.49797356128692627,-0.002730265259742737,0.0,False,1,0.0,,,60.0,40.0,80.0,5.0
40.23115361831151,1671,266.9832763671875,330.9978332519531,-0.0012506103375926614,-0.01300048828125,0.06167660653591156,0.0022429926320910454,3.4496843814849854,-0.009936648420989513,-0.00045085905003361404,3.449698721934594,12.418915398964538,0.4992404282093048,-0.007607914507389069,0.0,False,1,0.0,,,60.0,40.0,80.0,5.0
40.269903287058696,1672,267.1180725097656,330.99749755859375,-0.0012999725295230746,-0.02615356259047985,0.060597434639930725,0.0017821560613811016,3.4962120056152344,-0.006746421102434397,-0.0009534358978271484,3.4962186446853982,12.586387120867434,0.49819880723953247,-0.002420194447040558,0.0,False,1,0.0,,,60.0,40.0,80.0,5.0
40.29941867827438,1673,267.22198486328125,330.99725341796875,-0.0013262176653370261,-0.0279541015625,0.05942264199256897,0.001393951359204948,3.5341386795043945,-0.006999664939939976,-0.0006810474442318082,3.5341456768367596,12.722924436612335,0.49874627590179443,-0.0030465908348560333,0.0,False,1,0.0,,,60.0,40.0,80.0,5.0
40.330245772143826,1674,267.3321533203125,330.9971008300781,-0.001276321359910071,-0.035186767578125,0.05996222794055939,0.0009562057093717158,3.5968027114868164,-0.006326331757009029,0.001314620953053236,3.596808515345328,12.948510655243181,0.4980732798576355,-0.0021260417997837067,0.0,False,1,0.0,,,60.0,40.0,80.0,5.0
40.35774994804524,1675,267.43206787109375,330.9969787597656,-0.0012851714855059981,-0.0411376953125,0.06157415360212326,0.000615128199569881,3.6500377655029297,-0.006062828004360199,-0.00033600805909372866,3.6500428162396186,13.140154138462627,0.49781087040901184,-0.001863088458776474,0.0,False,1,0.0,,,60.0,40.0,80.0,5.0
40.384541153674945,1676,267.5307312011719,330.9968566894531,-0.0012831115163862705,-0.043487548828125,0.06304947286844254,0.0004344083135947585,3.697930097579956,-0.006164776626974344,1.3885497537557967e-05,3.6979352362164715,13.312566850379298,0.4978480935096741,-0.001858983188867569,0.0,False,1,0.0,,,60.0,40.0,80.0,5.0
40.41679434455,1677,267.6512756347656,330.9967041015625,-0.0012547301594167948,-0.0492858812212944,0.06482531875371933,0.0004583451081998646,3.7592973709106445,-0.006532833445817232,0.0006604671361856163,3.7593031052397667,13.53349117886316,0.4978750944137573,-0.001958440989255905,0.0,False,1,0.0,,,60.0,40.0,80.0,5.0
40.457440081750974,1678,267.80596923828125,330.99652099609375,-0.0012364959111437201,-0.05612180754542351,0.06701098382472992,0.0005525122978724539,3.836329936981201,-0.006982868537306786,0.00026352881104685366,3.836336301118377,13.810810684026158,0.49789029359817505,-0.0018991529941558838,0.0,False,1,0.0,,,60.0,40.0,80.0,5.0
40.48663621558808,1679,267.9190673828125,330.9962463378906,-0.0012757109943777323,-0.0610351487994194,0.06830188632011414,0.0007351329550147057,3.890444278717041,-0.0075821056962013245,-0.0011802100343629718,3.890451846125932,14.005626646053356,0.4978427290916443,-0.0020899884402751923,0.0,False,1,0.0,,,60.0,40.0,80.0,5.0
40.51565601839684,1680,268.0329895019531,330.9960021972656,-0.0012971495743840933,-0.06683347374200821,0.06925811618566513,0.0008639119332656264,3.942949056625366,-0.007945884019136429,-0.0006412124494090676,3.9429571150811564,14.194645614292163,0.4978398084640503,-0.0019657835364341736,0.0,False,1,0.0,,,60.0,40.0,80.0,5.0
40.54801081656478,1681,268.1617431640625,330.9956970214844,-0.0012608718825504184,-0.071746826171875,0.06996845453977585,0.0008414508774876595,4.001001834869385,-0.008006266318261623,0.0008937453967519104,4.001009945215006,14.403635802774021,0.4978616237640381,-0.0016090013086795807,0.0,False,1,0.0,,,60.0,40.0,80.0,5.0
40.58047856553458,1682,268.2928466796875,330.9953918457031,-0.0012401199201121926,-0.0762023851275444,0.07041241973638535,0.0007378155714832246,4.058371543884277,-0.008054208941757679,0.0004897213075309992,4.058379565580121,14.610166436088436,0.49780261516571045,-0.001390453428030014,0.0,False,1,0.0,,,60.0,40.0,80.0,5.0
40.61202999739908,1683,268.4219970703125,330.99505615234375,-0.0012229919666424394,-0.08050537109375,0.07057633996009827,0.0007536643533967435,4.113189220428467,-0.00846177339553833,0.00042246340308338404,4.113197946018798,14.807512605667673,0.4977495074272156,-0.0015092827379703522,0.0,False,1,0.0,,,60.0,40.0,80.0,5.0
40.641927828779444,1684,268.5459899902344,330.9948425292969,-0.0012757109943777323,-0.0848693773150444,0.07053536176681519,0.0008760015480220318,4.164320468902588,-0.009032421745359898,-0.0014849758008494973,4.1643305293308295,14.991589905590986,0.4977443218231201,-0.0016648881137371063,0.0,False,1,0.0,,,60.0,40.0,80.0,5.0
40.67095071612857,1685,268.6678161621094,330.9944763183594,-0.001297264127060771,-0.0910644456744194,0.07033728063106537,0.0014397860504686832,4.21324348449707,-0.010911822319030762,-0.000607128138653934,4.213257658407318,15.167727570266344,0.4980214238166809,-0.002860434353351593,0.0,False,1,0.0,,,60.0,40.0,80.0,5.0
40.69800175703131,1686,268.7825927734375,330.994140625,-0.0012894439278170466,-0.0979308933019638,0.07004358619451523,0.0019243973074480891,4.258256435394287,-0.01199294999241829,0.0002773380256257951,4.258273332859548,15.329783998294372,0.49818816781044006,-0.002860434353351593,0.0,False,1,0.0,,,60.0,40.0,80.0,5.0
40.72587777650915,1687,268.9021301269531,330.9937438964844,-0.0012912750244140625,-0.1071777269244194,0.06965426355600357,0.0027118385769426823,4.3040571212768555,-0.014379593543708324,-1.165389949164819e-05,4.304081141900127,15.49469211084046,0.4983014166355133,-0.004154384136199951,0.0,False,1,0.0,,,60.0,40.0,80.0,5.0
40.75449994741939,1688,269.0262145996094,330.9932861328125,-0.0012985991779714823,-0.11767575889825821,0.06917615234851837,0.0032320835161954165,4.350485324859619,-0.015593542717397213,-0.0001835918374126777,4.350513274787166,15.661847789233796,0.4981331527233124,-0.0038170479238033295,0.0,False,1,0.0,,,60.0,40.0,80.0,5.0
40.78575191809796,1689,269.1631164550781,330.9927978515625,-0.0012514113914221525,-0.128662109375,0.0685887560248375,0.003364607924595475,4.400476932525635,-0.01621999591588974,0.001254444126971066,4.4005070043789045,15.841825215764057,0.4980049133300781,-0.0033378973603248596,0.0,False,1,0.0,,,60.0,40.0,80.0,5.0
40.816884480183944,1690,269.3010559082031,330.9923095703125,-0.0012235641479492188,-0.1391906887292862,0.06794671714305878,0.003371012397110462,4.449548244476318,-0.01705753244459629,0.0007286929758265615,4.449580999412062,16.018491597883422,0.49804970622062683,-0.0033090151846408844,0.0,False,1,0.0,,,60.0,40.0,80.0,5.0
40.84564019902609,1691,269.42987060546875,330.9918212890625,-0.001259498530998826,-0.1469726413488388,0.0672910213470459,0.002863014815375209,4.494227409362793,-0.01638009585440159,-0.0010507773840799928,4.494257382342617,16.17932657643342,0.4976749122142792,-0.002019159495830536,0.0,False,1,0.0,,,60.0,40.0,80.0,5.0
40.8766629116144,1692,269.5701599121094,330.9913635253906,-0.0012306213611736894,-0.15386962890625,0.06656018644571304,0.002340883482247591,4.5417256355285645,-0.016390524804592133,0.0007703304290771484,4.541755276446506,16.35031899520742,0.4976750910282135,-0.0019210055470466614,0.0,False,1,0.0,,,60.0,40.0,80.0,5.0
40.910961566260085,1693,269.72705078125,330.99072265625,-0.0012385176960378885,-0.1611938327550888,0.06571324914693832,0.002092235255986452,4.5934062004089355,-0.0170318391174078,-0.00018040656868834049,4.593437779925347,16.53637600773125,0.4975656569004059,-0.002083640545606613,0.0,False,1,0.0,,,60.0,40.0,80.0,5.0
40.9490566754248,1694,269.90338134765625,330.9900817871094,-0.0012788772583007812,-0.1697997897863388,0.06472969800233841,0.002098713768646121,4.649803638458252,-0.01808604784309864,-0.0007997417123988271,4.649838881179969,16.739419972247887,0.49752211570739746,-0.002273131161928177,0.0,False,1,0.0,,,60.0,40.0,80.0,5.0
40.98451258032583,1695,270.06939697265625,330.98944091796875,-0.0012763595441356301,-0.1780090034008026,0.06378713250160217,0.0021478405687958,4.701377868652344,-0.01888691633939743,9.002685692394152e-05,4.701415806708411,16.92509690415028,0.4974919557571411,-0.002204064279794693,0.0,False,1,0.0,,,60.0,40.0,80.0,5.0
41.01563420123421,1696,270.2165832519531,330.98883056640625,-0.0012447356712073088,-0.1848144233226776,0.06296750903129578,0.0020868685096502304,4.745944023132324,-0.01930558681488037,0.0008499908144585788,4.745983364790914,17.08554011324729,0.49758562445640564,-0.001949269324541092,0.0,False,1,0.0,,,60.0,40.0,80.0,5.0
41.0451928449329,1697,270.357666015625,330.98822021484375,-0.0012872314546257257,-0.192901611328125,0.06215471774339676,0.002504148054867983,4.7876763343811035,-0.02134724333882332,-0.0011743450304493308,4.7877240696052334,17.23580665057884,0.49786344170570374,-0.0031319595873355865,0.0,False,1,0.0,,,60.0,40.0,80.0,5.0
41.07208114839159,1698,270.487060546875,330.9875183105469,-0.0012852096697315574,-0.2042236179113388,0.06145120784640312,0.003665933385491371,4.825170040130615,-0.02518223226070404,0.00012127876107115299,4.825235753380787,17.370848712170833,0.4984397888183594,-0.005295012146234512,0.0,False,1,0.0,,,60.0,40.0,80.0,5.0
41.10048805898987,1699,270.6248779296875,330.98675537109375,-0.0012974166311323643,-0.21820068359375,0.060693059116601944,0.004563010297715664,4.864355564117432,-0.027163464576005936,-0.0003269958542659879,4.864431417431463,17.511953102753267,0.4984171688556671,-0.004764586687088013,0.0,False,1,0.0,,,60.0,40.0,80.0,5.0
41.1287871634122,1700,270.7632751464844,330.9860534667969,-0.0013033675495535135,-0.2283630073070526,0.05996222794055939,0.003969112876802683,4.902916431427002,-0.02526661567389965,-0.00014211655070539564,4.902981537352717,17.65073353446978,0.497710645198822,-0.001785416156053543,0.0,False,1,0.0,,,60.0,40.0,80.0,5.0
41.15872637904249,1701,270.9108581542969,330.9853515625,-0.0013249587500467896,-0.2359924167394638,0.05919724702835083,0.0031181657686829567,4.9431281089782715,-0.024931704625487328,-0.0005727195530198514,4.943191015899985,17.795487657239946,0.49777495861053467,-0.001785416156053543,0.0,False,1,0.0,,,60.0,40.0,80.0,5.0
41.18689696281217,1702,271.0508117675781,330.9846496582031,-0.0013185500865802169,-0.24212650954723358,0.05846641585230827,0.002597027225419879,4.980442047119141,-0.025132523849606514,0.0002399063087068498,4.98050546491241,17.929819673684676,0.49776992201805115,-0.0017694085836410522,0.0,False,1,0.0,,,60.0,40.0,80.0,5.0
41.21600868715905,1703,271.196533203125,330.98394775390625,-0.0012594604631885886,-0.2483215481042862,0.057674113661050797,0.00236315093934536,5.018530368804932,-0.025788819417357445,0.006513089872896671,5.018600855434111,18.0669630795628,0.4978218376636505,-0.001935657113790512,0.0,False,1,0.0,,,60.0,40.0,80.0,5.0
41.24378911382519,1704,271.33660888671875,330.9832458496094,-0.0011341094505041838,-0.2541199028491974,0.05689547210931778,0.0021848217584192753,5.054275035858154,-0.026264993473887444,0.003738994477316737,5.054344662571086,18.19564078525591,0.4977617859840393,-0.0018080472946166992,0.0,False,1,0.0,,,60.0,40.0,80.0,5.0
41.27508953935467,1705,271.4955749511719,330.982421875,-0.001060218783095479,-0.259918212890625,0.0560690201818943,0.0021603889763355255,5.0933356285095215,-0.027073750272393227,0.001776628429070115,5.093407893444906,18.336268416401662,0.49801233410835266,-0.0019237063825130463,0.0,False,1,0.0,,,60.0,40.0,80.0,5.0
41.318928126012906,1706,271.7188720703125,330.9812316894531,-0.0010300826979801059,-0.2802428901195526,0.04915686696767807,0.0023550887126475573,5.091947078704834,-0.028175631538033485,0.00041895866161212325,5.09202504845269,18.331290174429686,0.49795278906822205,-0.001826900988817215,0.0,False,1,0.0,,,60.0,40.0,80.0,5.0
41.34947955585085,1707,271.8734436035156,330.98040771484375,-0.0010394668206572533,-0.2804870009422302,0.040045395493507385,0.0018742677057161927,5.082860946655273,-0.02696738950908184,-8.028030424611643e-05,5.0829324852466025,18.298556946887768,0.49830034375190735,0.00047630444169044495,0.0,False,1,0.0,,,60.0,40.0,80.0,5.0
41.39584245136939,1708,272.1081848144531,330.9791259765625,-0.0010921097127720714,-0.2472228705883026,0.032436568289995193,0.0015505399787798524,5.11610221862793,-0.027949290350079536,0.00023566246090922505,5.116178567037853,18.41824284133627,0.4982123076915741,-0.0023539699614048004,0.0,False,1,0.0,,,60.0,40.0,80.0,5.0
41.43058132356964,1709,272.28594970703125,330.9778747558594,-0.0010926437098532915,-0.2770995497703552,0.03116615116596222,0.00456093018874526,5.098928451538086,-0.03627042844891548,-4.8923491704044864e-05,5.099057452145245,18.35660682772288,0.49997684359550476,-0.009343292564153671,0.0,False,1,0.0,,,60.0,40.0,80.0,5.0
41.459621434798464,1710,272.43316650390625,330.97686767578125,-0.0011064910795539618,-0.2640990614891052,0.02294260449707508,0.006015663966536522,5.055235862731934,-0.038310617208480835,-0.0001469516719225794,5.0553810294414765,18.199371705989314,0.4995599389076233,-0.007135298103094101,0.0,False,1,0.0,,,60.0,40.0,80.0,5.0
41.488668298115954,1711,272.57904052734375,330.9757385253906,-0.0011263274354860187,-0.3266600966453552,0.012553887441754341,0.005408621393144131,5.010284900665283,-0.03665845841169357,-0.0002571010554675013,5.010419013865866,18.03750844991712,0.49930068850517273,-0.004486650228500366,0.0,False,1,0.0,,,60.0,40.0,80.0,5.0
41.51954969554208,1712,272.7350769042969,330.9746398925781,-0.001157302875071764,-0.3233031928539276,0.012123584747314453,0.0036987082567065954,5.102870464324951,-0.03442046418786049,0.0001010847045108676,5.102986552427212,18.370751588737964,0.49821487069129944,-0.0009489282965660095,0.0,False,1,0.0,,,60.0,40.0,80.0,5.0
41.547549087321386,1713,272.8799133300781,330.9736633300781,-0.001143226632848382,-0.326446533203125,0.02324313297867775,0.0028235879726707935,5.197890281677246,-0.03572116792201996,-6.428718188544735e-05,5.198013022908399,18.712846882470238,0.498254656791687,-0.0025529302656650543,0.0,False,1,0.0,,,60.0,40.0,80.0,5.0
41.58045266545378,1714,273.0511169433594,330.9725646972656,-0.0011402892414480448,-0.32565298676490784,0.029007811099290848,0.002202545292675495,5.188929557800293,-0.035212013870477676,-0.0001739501894917339,5.189049033492845,18.680576520574242,0.498140811920166,-0.0016662999987602234,0.0,False,1,0.0,,,60.0,40.0,80.0,5.0
41.62142335972749,1715,273.26275634765625,330.9711608886719,-0.001156120328232646,-0.355377197265625,0.02291528321802616,0.0015916154952719808,5.152915000915527,-0.034596920013427734,-0.00019849777163472027,5.1530311461251666,18.5509121260506,0.49830180406570435,-0.0019740350544452667,0.0,False,1,0.0,,,60.0,40.0,80.0,5.0
41.65524882054888,1716,273.4364318847656,330.96990966796875,-0.0011730194091796875,-0.361419677734375,0.015128868632018566,0.001547396881505847,5.124939918518066,-0.03495078161358833,-0.00018091201491188258,5.1250590980284825,18.450212752902537,0.4984867572784424,-0.0022239871323108673,0.0,False,1,0.0,,,60.0,40.0,80.0,5.0
41.68922834447585,1717,273.6099853515625,330.9686584472656,-0.0011881637619808316,-0.3687133491039276,0.00786837749183178,0.001601666328497231,5.102038383483887,-0.03539407253265381,-0.0001562976831337437,5.102161153015679,18.367780150856444,0.4984867572784424,-0.0022239871323108673,0.0,False,1,0.0,,,60.0,40.0,80.0,5.0
41.73092233366333,1718,273.82220458984375,330.9671325683594,-0.0012025069445371628,-0.349884033203125,0.0016187547007575631,0.0013902648352086544,5.085414409637451,-0.03568422421813011,-0.00013644217688124627,5.085539607575852,18.307942587273068,0.4979567527770996,-0.001364588737487793,0.0,False,1,0.0,,,60.0,40.0,80.0,5.0
41.766575664049014,1719,274.0030822753906,330.9658508300781,-0.0012120056198909879,-0.355255126953125,-0.0024452076759189367,0.0014293792191892862,5.065200328826904,-0.03634782135486603,-0.00011496543447719887,5.06533074423403,18.23519067924251,0.49776917695999146,-0.001805182546377182,0.0,False,1,0.0,,,60.0,40.0,80.0,5.0
41.801013726508245,1720,274.1772766113281,330.964599609375,-0.0012185287196189165,-0.3593749403953552,-0.005067999940365553,0.0013969728024676442,5.055953025817871,-0.03638049215078354,-8.346557297045365e-05,5.056083914103139,18.201902090771302,0.4976954460144043,-0.0015277639031410217,0.0,False,1,0.0,,,60.0,40.0,80.0,5.0
41.83901119581424,1721,274.36883544921875,330.96319580078125,-0.0012250518193468451,-0.3648070991039276,-0.00777958519756794,0.0014671828830614686,5.031993865966797,-0.03698756918311119,-6.261825183173642e-05,5.032129802710041,18.115667289756146,0.497597336769104,-0.001523233950138092,0.0,False,1,0.0,,,60.0,40.0,80.0,5.0
41.8760493171867,1722,274.5548095703125,330.9617919921875,-0.0012302398681640625,-0.3673400282859802,-0.010135999880731106,0.0014559804694727063,5.016087055206299,-0.03715730458498001,-6.573677092092112e-05,5.016224677485404,18.058408838947454,0.4974818527698517,-0.001604817807674408,0.0,False,1,0.0,,,60.0,40.0,80.0,5.0
41.90665543056093,1723,274.7090148925781,330.960693359375,-0.0012283705873414874,-0.3735656440258026,-0.007506377529352903,0.001319843577221036,5.052001476287842,-0.037226252257823944,-5.4450032621389255e-05,5.0521386276740765,18.187699059626677,0.4975276589393616,-0.001626182347536087,0.0,False,1,0.0,,,60.0,40.0,80.0,5.0
41.94405559799634,1724,274.8980712890625,330.95928955078125,-0.0012255859328433871,-0.3784789443016052,-0.004180075600743294,0.0015379819087684155,5.045960426330566,-0.03848423808813095,-3.4027099900413305e-05,5.0461071789879,18.16598584435644,0.49747729301452637,-0.0017058216035366058,0.0,False,1,0.0,,,60.0,40.0,80.0,5.0
41.99050575844012,1725,275.1321105957031,330.9574890136719,-0.0012265776749700308,-0.4151916205883026,-0.004275698214769363,0.0012647840194404125,5.034745216369629,-0.037528131157159805,-2.2048949176678434e-05,5.034885078616111,18.125586283018,0.4976491928100586,-0.0013133510947227478,0.0,False,1,0.0,,,60.0,40.0,80.0,5.0
42.01832855469547,1726,275.2720947265625,330.9563903808594,-0.001227531349286437,-0.3870849013328552,-0.004576226696372032,0.0023481687530875206,5.029921531677246,-0.04149054363369942,-6.5040585468523204e-06,5.030092651242489,18.108333544472963,0.49842286109924316,-0.005283575505018234,0.0,False,1,0.0,,,60.0,40.0,80.0,5.0
42.04910074896179,1727,275.427734375,330.9549865722656,-0.0012213897425681353,-0.4048156440258026,-0.0007649811450392008,0.0045802295207977295,5.076254844665527,-0.047363489866256714,6.196022150106728e-05,5.0764758003955475,18.27531288142397,0.49840468168258667,-0.008546967059373856,0.0,False,1,0.0,,,60.0,40.0,80.0,5.0
42.08830011240207,1728,275.6268615722656,330.9530334472656,-0.0012133026029914618,-0.429290771484375,0.002936981152743101,0.006529774516820908,5.069985866546631,-0.05124618113040924,9.173392754746601e-05,5.070244852714527,18.252881469772298,0.4987964332103729,-0.006853748112916946,0.0,False,1,0.0,,,60.0,40.0,80.0,5.0
42.123571924632415,1729,275.805908203125,330.9513244628906,-0.0012103652115911245,-0.4423522353172302,0.0038180756382644176,0.004737960174679756,5.081355094909668,-0.04729676991701126,1.6145706467796117e-05,5.08157520708586,18.293670745509097,0.4975430369377136,-0.0006692782044410706,0.0,False,1,0.0,,,60.0,40.0,80.0,5.0
42.16065292409621,1730,275.9944152832031,330.9496765136719,-0.0012115859426558018,-0.4472350478172302,0.004384981002658606,0.0018752585165202618,5.0826520919799805,-0.043539803475141525,-9.880065772449598e-05,5.082838578231331,18.298218881632792,0.4972681403160095,0.0017467401921749115,0.0,False,1,0.0,,,60.0,40.0,80.0,5.0
42.19335126481019,1731,276.16131591796875,330.9482727050781,-0.0012112426338717341,-0.4514770209789276,0.0069326418451964855,0.0011918162927031517,5.1171417236328125,-0.04443184658885002,-8.506774611305445e-05,5.117334620285408,18.422404633027472,0.49806666374206543,-0.0017299801111221313,0.0,False,1,0.0,,,60.0,40.0,80.0,5.0
42.22354401065968,1732,276.3168640136719,330.9468688964844,-0.0012060547014698386,-0.4573668837547302,0.012560716830193996,0.0011114317458122969,5.169791221618652,-0.04505210369825363,-5.414962652139366e-05,5.1699875212717,18.611955076578123,0.4982861876487732,-0.001359160989522934,0.0,False,1,0.0,,,60.0,40.0,80.0,5.0
42.2612505981233,1733,276.5121154785156,330.9450988769531,-0.0012017821427434683,-0.4643249213695526,0.016563206911087036,0.002528758952394128,5.172882080078125,-0.04927023872733116,-4.730224645754788e-06,5.1731167173030235,18.623220182290886,0.49870219826698303,-0.004326973110437393,0.0,False,1,0.0,,,60.0,40.0,80.0,5.0
42.290388563415036,1734,276.66265869140625,330.9436340332031,-0.0012027740012854338,-0.5082396864891052,0.015169849619269371,0.003017900511622429,5.164957046508789,-0.049237750470638275,3.839492637780495e-05,5.165191734081744,18.594690242694277,0.4986206889152527,-0.0033116377890110016,0.0,False,1,0.0,,,60.0,40.0,80.0,5.0
42.32150823972188,1735,276.82440185546875,330.94207763671875,-0.0011994552332907915,-0.5110167860984802,0.017198415473103523,0.003143842564895749,5.2162885665893555,-0.050558872520923615,9.541511644783895e-06,5.216533581758337,18.779520894330012,0.4985087811946869,-0.002346254885196686,0.0,False,1,0.0,,,60.0,40.0,80.0,5.0
42.353285144781694,1736,276.990966796875,330.9404296875,-0.0011933898786082864,-0.5174254179000854,0.021494604647159576,0.0032192168291658163,5.255426406860352,-0.05187343806028366,1.5902518498478457e-05,5.255682407809112,18.920456668112802,0.4984181523323059,-0.003057040274143219,0.0,False,1,0.0,,,60.0,40.0,80.0,5.0
42.39149782410823,1737,277.19189453125,330.9383544921875,-0.0011919020907953382,-0.5289306640625,0.022321056574583054,0.002716630231589079,5.25264835357666,-0.051258739084005356,7.734298378636595e-06,5.252898455588486,18.91043444011855,0.49819886684417725,-0.0022053010761737823,0.0,False,1,0.0,,,60.0,40.0,80.0,5.0
42.43528205878101,1738,277.4222717285156,330.93609619140625,-0.0011950683547183871,-0.5106505751609802,0.02053154818713665,0.0020967319142073393,5.269507884979248,-0.05194951966404915,-2.0551680790958926e-05,5.2697639513429975,18.97115022483479,0.49775803089141846,-0.0012459903955459595,0.0,False,1,0.0,,,60.0,40.0,80.0,5.0
42.467061433708295,1739,277.5904846191406,330.9342956542969,-0.0011936569353565574,-0.522857666015625,0.021842943504452705,0.0033646689262241125,5.30825662612915,-0.056786492466926575,1.3661384400620591e-05,5.3085603617890005,19.110817302440402,0.4982171952724457,-0.005952734500169754,0.0,False,1,0.0,,,60.0,40.0,80.0,5.0
42.49564753449522,1740,277.7424011230469,330.9324951171875,-0.0011917876545339823,-0.5740966796875,0.022334717214107513,0.005475727841258049,5.31049919128418,-0.06109151244163513,6.822586146881804e-05,5.310850575771935,19.119062072778966,0.49819526076316833,-0.008136525750160217,0.0,False,1,0.0,,,60.0,40.0,80.0,5.0
42.524264234816656,1741,277.8941955566406,330.93072509765625,-0.001192550640553236,-0.553985595703125,0.019950982183218002,0.006622618529945612,5.303475379943848,-0.06396789103746414,9.080886957235634e-05,5.30386114118767,19.093900108275612,0.4984990358352661,-0.006425853818655014,0.0,False,1,0.0,,,60.0,40.0,80.0,5.0
42.55288181989454,1742,278.0458679199219,330.92877197265625,-0.0011943817371502519,-0.606231689453125,0.016938868910074234,0.006803268101066351,5.300014019012451,-0.06451144814491272,5.421638343250379e-05,5.300406619459462,19.081463830054066,0.4984205961227417,-0.005723144859075546,0.0,False,1,0.0,,,60.0,40.0,80.0,5.0
42.5818537005689,1743,278.1993103027344,330.92694091796875,-0.0011971283238381147,-0.584228515625,0.013837962411344051,0.006085043307393789,5.294750213623047,-0.064577117562294,2.904891880461946e-05,5.295144004615719,19.062518416616587,0.49799177050590515,-0.0030584223568439484,0.0,False,1,0.0,,,60.0,40.0,80.0,5.0
42.61126672080718,1744,278.35491943359375,330.9250183105469,-0.0012012481456622481,-0.633148193359375,0.010832679457962513,0.004461762495338917,5.28926944732666,-0.061918292194604874,-2.370834226894658e-05,5.289631855043757,19.042674678157525,0.4976986050605774,-0.000914793461561203,0.0,False,1,0.0,,,60.0,40.0,80.0,5.0
42.644641782855615,1745,278.5321960449219,330.9230041503906,-0.0012021636357530951,-0.6375121474266052,0.011563509702682495,0.0032003354281187057,5.327063083648682,-0.06175484135746956,-7.029533298918977e-05,5.327421023585908,19.178715684909267,0.49783217906951904,-0.0008354559540748596,0.0,False,1,0.0,,,60.0,40.0,80.0,5.0
42.68957145116292,1746,278.7721862792969,330.92034912109375,-0.0012028884375467896,-0.60791015625,0.014070188626646996,0.0008333927253261209,5.348036766052246,-0.05887017771601677,-0.00010250091145280749,5.3483607731133205,19.254098783207954,0.4973301887512207,0.0014713816344738007,0.0,False,1,0.0,,,60.0,40.0,80.0,5.0
42.727864172076806,1747,278.9770202636719,330.91802978515625,-0.001206626882776618,-0.60760498046875,0.013585245236754417,0.0007189632160589099,5.347846984863281,-0.060316283255815506,-7.041930803097785e-05,5.348187116443848,19.25347361919785,0.4976547956466675,-0.0012174546718597412,0.0,False,1,0.0,,,60.0,40.0,80.0,5.0
42.75566318980418,1748,279.1257629394531,330.9163513183594,-0.0012088012881577015,-0.6409912109375,0.012697321362793446,0.0008368852431885898,5.354302883148193,-0.06005614250898361,-2.6817320758709684e-05,5.35463968026433,19.276702848951587,0.4977482259273529,-0.0013061128556728363,0.0,False,1,0.0,,,60.0,40.0,80.0,5.0
42.783120872220024,1749,279.27294921875,330.9146728515625,-0.0012094497215002775,-0.6137999892234802,0.012321660295128822,0.0017931765178218484,5.362963676452637,-0.06344661116600037,9.269713700632565e-06,5.363338966306787,19.308020278704433,0.49817267060279846,-0.0038800574839115143,0.0,False,1,0.0,,,60.0,40.0,80.0,5.0
42.81105273752473,1750,279.4228515625,330.91278076171875,-0.0012086868518963456,-0.6587828993797302,0.012137245386838913,0.0040921904146671295,5.3703765869140625,-0.06869833171367645,7.05623606336303e-05,5.370815966967592,19.33493748108333,0.49848851561546326,-0.008681900799274445,0.0,False,1,0.0,,,60.0,40.0,80.0,5.0
42.838454127078876,1751,279.5701904296875,330.9107666015625,-0.0012060165172442794,-0.644073486328125,0.012116755358874798,0.0061587681993842125,5.379982948303223,-0.07344865798950195,0.00011801719665527344,5.380484294496356,19.369743460186882,0.49876871705055237,-0.008113760501146317,0.0,False,1,0.0,,,60.0,40.0,80.0,5.0
42.87300267419778,1752,279.7566833496094,330.9081115722656,-0.0011998747941106558,-0.6687926054000854,0.013824301771819592,0.007254881784319878,5.409029006958008,-0.0763411819934845,0.00010385512723587453,5.409567707771775,19.47444374797839,0.4990471303462982,-0.006661403924226761,0.0,False,1,0.0,,,60.0,40.0,80.0,5.0
42.90087968832813,1753,279.90771484375,330.9058532714844,-0.0011956023517996073,-0.724334716796875,0.015067396685481071,0.00844446662813425,5.418567180633545,-0.08022867888212204,9.418487024959177e-05,5.419161091979544,19.50897993112636,0.49902108311653137,-0.009306751191616058,0.0,False,1,0.0,,,60.0,40.0,80.0,5.0
42.92926517664455,1754,280.06158447265625,330.9034729003906,-0.001192817697301507,-0.71624755859375,0.014841999858617783,0.009959431365132332,5.421245574951172,-0.08557973802089691,0.00010641097469488159,5.42192101443858,19.51891565197889,0.49919989705085754,-0.01050463318824768,0.0,False,1,0.0,,,60.0,40.0,80.0,5.0
42.962481612106785,1755,280.2424621582031,330.9005126953125,-0.0011872481554746628,-0.751220703125,0.016781773418188095,0.010471832938492298,5.4611358642578125,-0.08857489377260208,8.022307883948088e-05,5.461854121644544,19.66267483792036,0.4988771677017212,-0.008323952555656433,0.0,False,1,0.0,,,60.0,40.0,80.0,5.0
43.01199212460779,1756,280.5129699707031,330.89605712890625,-0.0011857986683025956,-0.8288269639015198,0.016720302402973175,0.009086058475077152,5.458540916442871,-0.0886225700378418,-2.2983549570199102e-06,5.45926028839131,19.65333703820872,0.4983260929584503,-0.005356937646865845,0.0,False,1,0.0,,,60.0,40.0,80.0,5.0
43.042915200581774,1757,280.6829528808594,330.89324951171875,-0.0011830520816147327,-0.8417052626609802,0.019732415676116943,0.007547696121037006,5.522467136383057,-0.08847517520189285,-4.3272972106933594e-05,5.523175819302734,19.883432949489844,0.49810341000556946,-0.0023955516517162323,0.0,False,1,0.0,,,60.0,40.0,80.0,5.0
43.07291066250764,1758,280.848876953125,330.89056396484375,-0.001182022038847208,-0.8167420029640198,0.022191284224390984,0.006241550203412771,5.52476167678833,-0.08911705762147903,-8.805274410406128e-05,5.525480381199575,19.89172937231847,0.4984493851661682,-0.003383766859769821,0.0,False,1,0.0,,,60.0,40.0,80.0,5.0
43.10760826594196,1759,281.0410461425781,330.8874206542969,-0.0011838531354442239,-0.8402100205421448,0.022491810843348503,0.006132898852229118,5.5481719970703125,-0.09184384346008301,-5.165100083104335e-05,5.548932131800183,19.97615567448066,0.4988301396369934,-0.005503538995981216,0.0,False,1,0.0,,,60.0,40.0,80.0,5.0
43.141560051357374,1760,281.2300109863281,330.8842468261719,-0.0011835478944703937,-0.8630980849266052,0.023639284074306488,0.006323396693915129,5.576415061950684,-0.0941716656088829,-2.5081633793888614e-05,5.577210166954719,20.07795660103699,0.4986197352409363,-0.004754427820444107,0.0,False,1,0.0,,,60.0,40.0,80.0,5.0
43.17137832543813,1761,281.3963317871094,330.8811950683594,-0.0011841201921924949,-0.9272460341453552,0.02281283028423786,0.008817554451525211,5.573140621185303,-0.10162121802568436,3.855705290334299e-05,5.57406703018051,20.066641308649835,0.49942314624786377,-0.011936716735363007,0.0,False,1,0.0,,,60.0,40.0,80.0,5.0
43.199163729092106,1762,281.5511779785156,330.8782653808594,-0.0011850356822833419,-0.9196473360061646,0.02056569792330265,0.010694987140595913,5.575705528259277,-0.10684807598590851,9.115218563238159e-05,5.576729207834255,20.076225148203317,0.499009907245636,-0.010034643113613129,0.0,False,1,0.0,,,60.0,40.0,80.0,5.0
43.23321550874971,1763,281.7415771484375,330.8744812011719,-0.0011822509113699198,-0.9534302353858948,0.020169546827673912,0.011774747632443905,5.603812217712402,-0.11129353940486908,8.893966150935739e-05,5.60491727246766,20.17770218088358,0.49888157844543457,-0.009358011186122894,0.0,False,1,0.0,,,60.0,40.0,80.0,5.0
43.261632648995146,1764,281.9009704589844,330.8712463378906,-0.0011808013077825308,-1.014190673828125,0.019855359569191933,0.011421379633247852,5.607996463775635,-0.11185561865568161,5.2957533625885844e-05,5.60911187443693,20.19280274797295,0.4981510639190674,-0.006833229213953018,0.0,False,1,0.0,,,60.0,40.0,80.0,5.0
43.29178033187054,1765,282.0711364746094,330.8677978515625,-0.0011765670496970415,-1.032287359237671,0.02275135926902294,0.009804249741137028,5.668993949890137,-0.11164923757314682,-1.1343955520715099e-05,5.670093293436214,20.41233585637037,0.4976743459701538,-0.0030962228775024414,0.0,False,1,0.0,,,60.0,40.0,80.0,5.0
43.32367497100495,1766,282.2528381347656,330.86419677734375,-0.0011718368623405695,-1.0480653047561646,0.027566641569137573,0.007863335311412811,5.7089128494262695,-0.11152459681034088,-7.224559522001073e-05,5.710002072088723,20.556007459519403,0.4976162910461426,-0.0027732662856578827,0.0,False,1,0.0,,,60.0,40.0,80.0,5.0
43.36547336145304,1767,282.4922790527344,330.85968017578125,-0.0011722182389348745,-1.035980224609375,0.030496792867779732,0.0047042518854141235,5.739051818847656,-0.10892794281244278,-0.00011920928955078125,5.740085460196111,20.664307656706,0.4976024329662323,0.00017600134015083313,0.0,False,1,0.0,,,60.0,40.0,80.0,5.0
43.39643286517821,1768,282.6706848144531,330.8562316894531,-0.0011738586472347379,-1.042205572128296,0.032231662422418594,0.003410747740417719,5.777670383453369,-0.10935517400503159,-0.00011274337157374248,5.778705185993394,20.803338669576217,0.49762022495269775,-0.0009887441992759705,0.0,False,1,0.0,,,60.0,40.0,80.0,5.0
43.43572139716707,1769,282.89764404296875,330.8519592285156,-0.001180572435259819,-1.0431822538375854,0.030209925025701523,0.0026382284704595804,5.767426490783691,-0.1094365194439888,-9.544372005620971e-05,5.7684646733330185,20.766472823998868,0.4975202679634094,-0.0005793273448944092,0.0,False,1,0.0,,,60.0,40.0,80.0,5.0
43.46673517092131,1770,283.07720947265625,330.8485107421875,-0.0011838913196697831,-1.0452269315719604,0.029356151819229126,0.002014589961618185,5.809078216552734,-0.10937375575304031,-6.089210364734754e-05,5.810107774231289,20.916387987232643,0.4984018802642822,-0.0005793273448944092,0.0,False,1,0.0,,,60.0,40.0,80.0,5.0
43.49604042409919,1771,283.2475280761719,330.8451843261719,-0.0011868285946547985,-1.0855711698532104,0.02811988815665245,0.002921717008575797,5.8050761222839355,-0.11232557147741318,-1.9702911231433973e-05,5.806162744869199,20.902185881529117,0.49793967604637146,-0.004275824874639511,0.0,False,1,0.0,,,60.0,40.0,80.0,5.0
43.531619095942006,1772,283.4540710449219,330.8416442871094,-0.0011929321335628629,-1.064727783203125,0.024356452748179436,-0.0034484865609556437,5.809297561645508,-0.09533622860908508,-4.111290036235005e-05,5.810079789289999,20.916287241443996,0.4978334307670593,0.014710802584886551,0.0,False,1,0.0,,,60.0,40.0,80.0,5.0
43.56527573778294,1773,283.6499328613281,330.8382873535156,-0.0011935043148696423,-1.044372320175171,0.022539623081684113,-0.0036315915640443563,5.828795433044434,-0.10126509517431259,4.144668491790071e-05,5.829675018515023,20.986830066654083,0.4968373477458954,-0.0013405010104179382,0.0,False,1,0.0,,,60.0,40.0,80.0,5.0
43.59335587522946,1774,283.8136291503906,330.8353576660156,-0.00119609828107059,-1.00921630859375,0.02082524634897709,-0.0008544920710846782,5.826521396636963,-0.10704631358385086,-4.144668491790071e-05,5.827504654690382,20.979016756885375,0.4973013997077942,-0.0052079930901527405,0.0,False,1,0.0,,,60.0,40.0,80.0,5.0
43.62667949474417,1775,284.0082092285156,330.83160400390625,-0.0011994170490652323,-1.0222471952438354,0.019677773118019104,0.0026722766924649477,5.848598003387451,-0.11376021802425385,-8.716582669876516e-06,5.849704265388857,21.058935355399885,0.49800658226013184,-0.007257476449012756,0.0,False,1,0.0,,,60.0,40.0,80.0,5.0
43.65511195152067,1776,284.1745300292969,330.8282470703125,-0.0011997985420748591,-1.0686949491500854,0.01853030174970627,0.0038470199797302485,5.846755027770996,-0.11383868008852005,5.636215064441785e-05,5.84786316555256,21.052307395989217,0.4972951412200928,-0.003360375761985779,0.0,False,1,0.0,,,60.0,40.0,80.0,5.0
43.68385346024297,1777,284.3423767089844,330.82574462890625,-0.0012033843668177724,-1.0071107149124146,0.01553867943584919,-0.007232666481286287,5.83815336227417,-0.08357337862253189,1.964569037227193e-06,5.838751509616713,21.019505434620164,0.49930262565612793,0.03348979353904724,0.0,False,1,0.0,,,60.0,40.0,80.0,5.0
43.712678625946864,1778,284.51043701171875,330.8242492675781,-0.0011979293776676059,-0.961822509765625,0.012096264399588108,-0.02426147274672985,5.829324722290039,-0.04780538007616997,0.0005159854772500694,5.829520764051456,20.986274750585242,0.5001344680786133,0.04845459386706352,0.0,False,1,0.0,,,60.0,40.0,80.0,5.0
43.74224266386591,1779,284.68255615234375,330.8239440917969,-0.001179924001917243,-0.790863037109375,0.008544566109776497,-0.0421447716653347,5.818946361541748,-0.010884695686399937,0.0008720397599972785,5.818956607120685,20.948243785634467,0.5005192756652832,0.060776833444833755,0.0,False,1,0.0,,,60.0,40.0,80.0,5.0
43.77006446919404,1780,284.84375,330.8245544433594,-0.0005375671316869557,-0.637603759765625,-0.024322303012013435,0.0038262938614934683,5.840590476989746,0.04349236562848091,0.001164340996183455,5.840752525271142,21.026709090976112,0.500949501991272,0.0786077231168747,0.0,False,1,0.0,,,60.0,40.0,80.0,5.0
43.81319272494875,1781,285.0993347167969,330.8254089355469,-0.0005518722464330494,-0.396575927734375,-0.0009493962279520929,-0.0014953612117096782,6.013343811035156,-0.011073414236307144,-0.0018184185028076172,6.013354281668719,21.64807541400739,0.49767643213272095,-0.003666441887617111,0.0,False,1,0.0,,,60.0,40.0,80.0,5.0
43.848962131654844,1782,285.3150329589844,330.8247985839844,-0.0006148147513158619,-0.3210143744945526,0.014418528415262699,0.007509706541895866,6.021267414093018,-0.0204481054097414,-0.002391719724982977,6.021302609681439,21.67668939485318,0.4968697428703308,0.0005679577589035034,0.0,False,1,0.0,,,60.0,40.0,80.0,5.0
43.89376985258423,1783,285.5846862792969,330.8240661621094,-0.0007203674176707864,-0.2927246391773224,0.016925208270549774,0.007365238852798939,6.016081809997559,-0.017254231497645378,-0.0024284934625029564,6.016107042820014,21.65798535415205,0.49814364314079285,0.0060002803802490234,0.0,False,1,0.0,,,60.0,40.0,80.0,5.0
43.9342955572065,1784,285.82904052734375,330.8231201171875,-0.0008118057157844305,-0.2481994777917862,0.017225736752152443,0.00992746651172638,6.0400071144104,-0.028106365352869034,-0.002126345643773675,6.040072882941678,21.744262378590044,0.4988830089569092,-0.004431147128343582,0.0,False,1,0.0,,,60.0,40.0,80.0,5.0
43.96363748400472,1785,286.0061340332031,330.8224182128906,-0.0008736037998460233,-0.27117919921875,0.016071435064077377,0.00811651349067688,6.029681205749512,-0.0226897019892931,-0.0019863699562847614,6.029724223479118,21.707007204524825,0.49720498919487,0.005091775208711624,0.0,False,1,0.0,,,60.0,40.0,80.0,5.0
43.991528471698985,1786,286.1741027832031,330.8220520019531,-0.0009297561482526362,-0.2153625339269638,0.013011509552598,0.0033831873442977667,6.020745277404785,-0.014030558988451958,-0.0018516635755077004,6.020761910309654,21.674742877114753,0.4970896244049072,0.012019149959087372,0.0,False,1,0.0,,,60.0,40.0,80.0,5.0
44.031931267818436,1787,286.41802978515625,330.8212890625,-0.000995903043076396,-0.21826171875,0.012506076134741306,0.0039461893029510975,6.051575183868408,-0.021769551560282707,-0.001438417355529964,6.051614510891419,21.785812239209108,0.4978199005126953,-0.003186482936143875,0.0,False,1,0.0,,,60.0,40.0,80.0,5.0
44.06693478836678,1788,286.6300964355469,330.82037353515625,-0.0010386657668277621,-0.2222289890050888,0.01302517019212246,0.006103194318711758,6.0590434074401855,-0.02667449414730072,-0.0011190890800207853,6.059102226752967,21.81276801631068,0.49778565764427185,-0.004714410752058029,0.0,False,1,0.0,,,60.0,40.0,80.0,5.0
44.09662081650458,1789,286.8096923828125,330.8196105957031,-0.0010704040760174394,-0.1918334662914276,0.011133207939565182,0.0060401251539587975,6.0443949699401855,-0.02665691263973713,-0.0009164905059151351,6.044453820121761,21.76003375243834,0.49737656116485596,-0.0012979693710803986,0.0,False,1,0.0,,,60.0,40.0,80.0,5.0
44.13022496900521,1790,287.01312255859375,330.81866455078125,-0.0010985183762386441,-0.2033996433019638,0.010067698545753956,0.005397341214120388,6.061804294586182,-0.027107182890176773,-0.0007435893639922142,6.061864948854672,21.82271381587682,0.49669840931892395,-0.0020246729254722595,0.0,False,1,0.0,,,60.0,40.0,80.0,5.0
44.17074414691888,1791,287.2594909667969,330.81744384765625,-0.0011222457978874445,-0.2367554008960724,0.012116755358874798,0.004516109824180603,6.093174934387207,-0.026911050081253052,-0.0005991744692437351,6.093234391082544,21.935643807897158,0.4969233572483063,-0.0012295544147491455,0.0,False,1,0.0,,,60.0,40.0,80.0,5.0
44.20234142220579,1792,287.4526062011719,330.8164367675781,-0.0011348724365234375,-0.2492065578699112,0.014841999858617783,0.005713274702429771,6.121420860290527,-0.03219565004110336,-0.0004537200729828328,6.121505543127728,22.03741995525982,0.4977111220359802,-0.005564972758293152,0.0,False,1,0.0,,,60.0,40.0,80.0,5.0
44.244710612809286,1793,287.71240234375,330.8151550292969,-0.0011487198062241077,-0.238677978515625,0.016897886991500854,0.004572546575218439,6.13655424118042,-0.030044903978705406,-0.0003472614334896207,6.136627801308712,22.091860084711364,0.4977811276912689,-0.00015315040946006775,0.0,False,1,0.0,,,60.0,40.0,80.0,5.0
44.278457809006795,1794,287.9197692871094,330.814208984375,-0.0011600112775340676,-0.24298095703125,0.016993509605526924,0.0030817908700555563,6.14797306060791,-0.02857556752860546,-0.00033491133945062757,6.148039478499287,22.132942122597434,0.4976392686367035,0.0005454383790493011,0.0,False,1,0.0,,,60.0,40.0,80.0,5.0
44.30599365546368,1795,288.0890197753906,330.81341552734375,-0.0011698531452566385,-0.272613525390625,0.01588701829314232,0.001978784566745162,6.144473075866699,-0.027009982615709305,-0.0002938270627055317,6.144532448083094,22.12031681309914,0.49858707189559937,0.0010579712688922882,0.0,False,1,0.0,,,60.0,40.0,80.0,5.0
44.33443756378256,1796,288.2635803222656,330.8126525878906,-0.0011807250557467341,-0.2406311333179474,0.013134453445672989,0.002285109832882881,6.133666038513184,-0.029835345223546028,-0.00023537635570392013,6.13373860506271,22.081458978225758,0.4984484612941742,-0.0024399161338806152,0.0,False,1,0.0,,,60.0,40.0,80.0,5.0
44.36967795691453,1797,288.47979736328125,330.8115539550781,-0.0011904144193977118,-0.2471313327550888,0.010511660948395729,0.002886042231693864,6.137967586517334,-0.031403303146362305,-0.00015213011647574604,6.13804792126369,22.096972516549283,0.4984314739704132,-0.0022455044090747833,0.0,False,1,0.0,,,60.0,40.0,80.0,5.0
44.40346302068792,1798,288.6875,330.810546875,-0.0011948775500059128,-0.252105712890625,0.010129169560968876,0.002159030642360449,6.153519630432129,-0.02983747236430645,-0.00011740684567485005,6.1535919697892725,22.15293109124138,0.4986136555671692,0.000388123095035553,0.0,False,1,0.0,,,60.0,40.0,80.0,5.0
44.434054378187284,1799,288.87640380859375,330.8096008300781,-0.0011953354114666581,-0.257568359375,0.012471924535930157,0.0021552189718931913,6.189656734466553,-0.03141872584819794,-0.00010736942203948274,6.189736475682084,22.283051312455502,0.49763911962509155,-0.0017856582999229431,0.0,False,1,0.0,,,60.0,40.0,80.0,5.0
44.46407497650944,1800,289.0629577636719,330.8086242675781,-0.0011922453995794058,-0.2636413276195526,0.016611019149422646,0.002392909722402692,6.226992607116699,-0.03250777721405029,-6.224631943041459e-05,6.227077459654732,22.417478854757036,0.49757373332977295,-0.0016088299453258514,0.0,False,1,0.0,,,60.0,40.0,80.0,5.0
44.49590579024516,1801,289.26171875,330.8075256347656,-0.0011891174362972379,-0.26904296875,0.02021735906600952,0.0025342220906168222,6.250406265258789,-0.033379197120666504,-4.8279762268066406e-05,6.2504953926803015,22.501783413649086,0.4975469708442688,-0.0014501139521598816,0.0,False,1,0.0,,,60.0,40.0,80.0,5.0
44.521441695978865,1802,289.4214782714844,330.8066711425781,-0.0011891555041074753,-0.297149658203125,0.021173585206270218,0.002582854824140668,6.256378650665283,-0.03365633636713028,-5.247116132522933e-05,6.25646917775763,22.52328903992747,0.4976089596748352,-0.0015115216374397278,0.0,False,1,0.0,,,60.0,40.0,80.0,5.0
44.561141380807385,1803,289.6693420410156,330.8052673339844,-0.0011960220290347934,-0.3059386909008026,0.017177924513816833,0.0024380888789892197,6.23143196105957,-0.03380146250128746,-3.4465789212845266e-05,6.2315236359472985,22.433485089410276,0.49757957458496094,-0.0014865435659885406,0.0,False,1,0.0,,,60.0,40.0,80.0,5.0
44.59121720097028,1804,289.8573913574219,330.8041687011719,-0.0011978530092164874,-0.3112182319164276,0.016563206911087036,0.002600842621177435,6.270322322845459,-0.03536365553736687,-2.3469923689845018e-05,6.270422044891227,22.573519361608415,0.4975552558898926,-0.0014945156872272491,0.0,False,1,0.0,,,60.0,40.0,80.0,5.0
44.62254885933362,1805,290.05438232421875,330.80303955078125,-0.0011957549722865224,-0.3169861137866974,0.018557623028755188,0.0028145592659711838,6.295759201049805,-0.03646906837821007,-1.2822150893043727e-05,6.295864826274152,22.665113374586948,0.4975129961967468,-0.0016526170074939728,0.0,False,1,0.0,,,60.0,40.0,80.0,5.0
44.657119150971994,1806,290.2721862792969,330.8017883300781,-0.0011952972272410989,-0.3251037299633026,0.018851321190595627,0.00283897016197443,6.299719333648682,-0.03706960007548332,-1.4209747405402595e-06,6.299828397504075,22.67938223101467,0.4976160228252411,-0.001521911472082138,0.0,False,1,0.0,,,60.0,40.0,80.0,5.0
44.693180449074134,1807,290.49920654296875,330.8003845214844,-0.001198997488245368,-0.3334045112133026,0.016289999708533287,0.0028004825580865145,6.292690277099609,-0.03775584697723389,-8.640288797323592e-06,6.292803542743058,22.65409275387501,0.4975563883781433,-0.0015709362924098969,0.0,False,1,0.0,,,60.0,40.0,80.0,5.0
44.71987113519572,1808,290.6670837402344,330.79937744140625,-0.0012022400042042136,-0.3116454780101776,0.013837962411344051,0.002810168080031872,6.289651870727539,-0.03878828510642052,-4.444122168933973e-06,6.289771473275295,22.643177303791063,0.4975825548171997,-0.001478143036365509,0.0,False,1,0.0,,,60.0,40.0,80.0,5.0
44.74929517856799,1809,290.85186767578125,330.7981262207031,-0.0012071228120476007,-0.3523254692554474,0.010361396707594395,0.0027438830584287643,6.274233818054199,-0.03880881518125534,-1.2321472240728326e-05,6.274353841464679,22.587673829272845,0.4976426959037781,-0.0014046765863895416,0.0,False,1,0.0,,,60.0,40.0,80.0,5.0
44.78098813048564,1810,291.0511779785156,330.7967834472656,-0.001208076486364007,-0.3587341010570526,0.009534943848848343,0.004220973234623671,6.301390647888184,-0.04396398365497589,2.0713805497507565e-05,6.301544011556258,22.68555844160253,0.49762028455734253,-0.004832085222005844,0.0,False,1,0.0,,,60.0,40.0,80.0,5.0
44.82420951477252,1811,291.3238525390625,330.7948303222656,-0.0012058638967573643,-0.3452453315258026,0.01032041572034359,0.004080581944435835,6.310880661010742,-0.04369824007153511,1.6479491023346782e-05,6.3110319484198705,22.719715014311536,0.4975569546222687,-0.0013579241931438446,0.0,False,1,0.0,,,60.0,40.0,80.0,5.0
44.853608121862635,1812,291.5091552734375,330.79351806640625,-0.0012076949933543801,-0.3863525390625,0.008763132616877556,0.003689659759402275,6.297318458557129,-0.0435984805226326,-2.9945372261863668e-06,6.29746938031438,22.67088976913177,0.4975282847881317,-0.0015868023037910461,0.0,False,1,0.0,,,60.0,40.0,80.0,5.0
44.88147976226173,1813,291.6844787597656,330.7922668457031,-0.001211204449646175,-0.3621826171875,0.006242792587727308,0.00454300781711936,6.28912353515625,-0.047418262809515,-1.1110305422334932e-05,6.289302292959653,22.641488254654753,0.4980531334877014,-0.00456475093960762,0.0,False,1,0.0,,,60.0,40.0,80.0,5.0
44.910347239812836,1814,291.8658447265625,330.7908630371094,-0.001213836600072682,-0.4025267958641052,0.003701962297782302,0.004329966381192207,6.278687000274658,-0.04639309272170067,2.6111601982847787e-05,6.278858396806866,22.603890228504717,0.49855998158454895,-0.001423858106136322,0.0,False,1,0.0,,,60.0,40.0,80.0,5.0
44.93854642449878,1815,292.042724609375,330.78961181640625,-0.0012165451189503074,-0.37530517578125,0.0015094716800376773,0.0038295071572065353,6.271792888641357,-0.04670124128460884,-6.732940619258443e-06,6.271966760434494,22.57908033756418,0.498249888420105,-0.0010728910565376282,0.0,False,1,0.0,,,60.0,40.0,80.0,5.0
44.964984778082,1816,292.2086181640625,330.7884216308594,-0.0012181472266092896,-0.4029235541820526,0.0008196226553991437,0.002242565853521228,6.278425216674805,-0.04319595545530319,-4.4393538701115176e-05,6.278573810501598,22.602865717805752,0.49818167090415955,0.002126391977071762,0.0,False,1,0.0,,,60.0,40.0,80.0,5.0
44.992349510779604,1817,292.3804626464844,330.7879638671875,-0.0012194823939353228,-0.3406982123851776,0.0008879245724529028,-0.009033202193677425,6.279515743255615,-0.013009447604417801,3.44371801475063e-05,6.279529219352993,22.606305189670774,0.4997377395629883,0.036173511296510696,0.0,False,1,0.0,,,60.0,40.0,80.0,5.0
45.02686293958686,1818,292.5974426269531,330.78900146484375,-0.0012021636357530951,-0.2173766940832138,0.0018236604519188404,-0.033203125,6.291834354400635,0.03862213343381882,0.0007048987899906933,6.2919529328571215,22.651030558285637,0.500220775604248,0.054814714938402176,0.0,False,1,0.0,,,60.0,40.0,80.0,5.0
45.06759081198834,1819,292.8544616699219,330.7925720214844,-0.001156616141088307,0.005068704020231962,0.005354868248105049,-0.0603027306497097,6.322458267211914,0.09772550314664841,0.0011349773267284036,6.32321358984299,22.763568923434764,0.5000477433204651,0.06399385631084442,0.0,False,1,0.0,,,60.0,40.0,80.0,5.0
45.10645673586987,1820,293.1000061035156,330.79833984375,-0.001108627300709486,0.3115074336528778,0.006058377679437399,-0.0822143405675888,6.308786869049072,0.152486190199852,0.0012200545752421021,6.310629547503231,22.71826637101163,0.5004483461380005,0.07595247030258179,0.0,False,1,0.0,,,60.0,40.0,80.0,5.0
45.14517653151415,1821,293.3437194824219,330.8067626953125,-0.0010654448997229338,0.6994575262069702,0.002930151065811515,-0.1065063402056694,6.28896427154541,0.22584977746009827,0.0012453842209652066,6.29301845553748,22.654866439934928,0.5012348890304565,0.10049761831760406,0.0,False,1,0.0,,,60.0,40.0,80.0,5.0
45.18000943004154,1822,293.5628967285156,330.8167419433594,-0.001022987300530076,1.1125948429107666,0.0020217359997332096,-0.1264953315258026,6.298228740692139,0.29129329323768616,0.0012415695236995816,6.304961426865403,22.697861136715453,0.5015536546707153,0.10447195172309875,0.0,False,1,0.0,,,60.0,40.0,80.0,5.0
45.21441753744148,1823,293.7798767089844,330.8287353515625,-0.0009810638148337603,1.5554490089416504,0.0033194718416780233,-0.1412658542394638,6.311532020568848,0.34912988543510437,0.0011015033815056086,6.321181008077486,22.756251629078953,0.5012128353118896,0.10261330008506775,0.0,False,1,0.0,,,60.0,40.0,80.0,5.0
45.24292712821625,1824,293.9596862792969,330.8400573730469,-0.0009527206420898438,1.9657020568847656,0.0037907548248767853,-0.1494751125574112,6.30401086807251,0.39124250411987305,0.0009092521504499018,6.31614000387466,22.738104013948774,0.499741792678833,0.10261330008506775,0.0,False,1,0.0,,,60.0,40.0,80.0,5.0
45.2735680451151,1825,294.1536560058594,330.8517761230469,-0.0009336852817796171,2.281986951828003,0.006761887110769749,-0.1284789741039276,6.350394248962402,0.3562661409378052,9.348869207315147e-05,6.360379917046906,22.89736770136886,0.4984665513038635,0.005499169230461121,0.0,False,1,0.0,,,60.0,40.0,80.0,5.0
45.30711382231675,1826,294.36737060546875,330.8628845214844,-0.0009535216959193349,2.4686453342437744,0.011344943195581436,-0.089447021484375,6.3743577003479,0.3235134184360504,-0.001189651433378458,6.38256205917054,22.97722341301394,0.4978175163269043,-0.001201525330543518,0.0,False,1,0.0,,,60.0,40.0,80.0,5.0
45.34285844839178,1827,294.5954284667969,330.8739318847656,-0.0010063552763313055,2.572111129760742,0.01290222629904747,-0.060974109917879105,6.37944221496582,0.3080378770828247,-0.0016321372240781784,6.386875055273715,22.992750198985377,0.4977370798587799,-0.001139570027589798,0.0,False,1,0.0,,,60.0,40.0,80.0,5.0
45.37241395912133,1828,294.7837829589844,330.8828125,-0.0010560225928202271,2.5835373401641846,0.011317622847855091,-0.046173095703125,6.368400573730469,0.30183926224708557,-0.0015571212861686945,6.375549798437083,22.9519792743735,0.49802732467651367,-0.001139570027589798,0.0,False,1,0.0,,,60.0,40.0,80.0,5.0
45.39962615794502,1829,294.9570007324219,330.8908386230469,-0.0010964584071189165,2.638218402862549,0.009234415367245674,-0.0365905836224556,6.366778373718262,0.2962169647216797,-0.0013065147213637829,6.37366559031898,22.94519612514833,0.49815690517425537,-0.002808567136526108,0.0,False,1,0.0,,,60.0,40.0,80.0,5.0
45.42969095869921,1830,295.149169921875,330.89971923828125,-0.00112743373028934,2.6524388790130615,0.010832679457962513,-0.02972412109375,6.409547805786133,0.29712268710136414,-0.0009967231890186667,6.416430936221887,23.099151370398793,0.49809545278549194,-0.0007816553115844727,0.0,False,1,0.0,,,60.0,40.0,80.0,5.0
45.4591511299368,1831,295.3381042480469,330.9084167480469,-0.001150856027379632,2.627967119216919,0.012410452589392662,-0.024383544921875,6.405154228210449,0.2964124083518982,-0.0007717227563261986,6.4120091701855175,23.083233012667865,0.49804267287254333,-0.0009489618241786957,0.0,False,1,0.0,,,60.0,40.0,80.0,5.0
45.496617428725585,1832,295.5777893066406,330.91949462890625,-0.001176376361399889,2.6335880756378174,0.010006226599216461,-0.019378662109375,6.395224571228027,0.29492148756980896,-0.0005012226174585521,6.402021262967908,23.047276546684472,0.49774813652038574,-0.0012486614286899567,0.0,False,1,0.0,,,60.0,40.0,80.0,5.0
45.53188746399246,1833,295.8034362792969,330.92974853515625,-0.0011926650768145919,2.634821891784668,0.008407962508499622,-0.01565551571547985,6.4014201164245605,0.29418498277664185,-0.0003439998545218259,6.408176373149558,23.069434943338408,0.4976730942726135,-0.001517605036497116,0.0,False,1,0.0,,,60.0,40.0,80.0,5.0
45.560133123537526,1834,295.9841613769531,330.9380798339844,-0.0012021636357530951,2.664011240005493,0.007267320994287729,-0.013061522506177425,6.396504878997803,0.2929287552833557,-0.0002500533882994205,6.40320872572816,23.051551412621375,0.49777522683143616,-0.0016257613897323608,0.0,False,1,0.0,,,60.0,40.0,80.0,5.0
45.589213885134086,1835,296.16998291015625,330.9465637207031,-0.0012107467046007514,2.6255569458007812,0.0051704528741538525,-0.010894774459302425,6.386605262756348,0.2923274636268616,-0.00018134116544388235,6.393291965892236,23.01585107721205,0.49782466888427734,-0.0017922893166542053,0.0,False,1,0.0,,,60.0,40.0,80.0,5.0
45.61522916681133,1836,296.3362731933594,330.95416259765625,-0.0012158583849668503,2.6472644805908203,0.004323509521782398,-0.00900268368422985,6.39609432220459,0.29121482372283936,-0.00013492583821061999,6.402720411692103,23.049793482091573,0.49796873331069946,-0.001972649246454239,0.0,False,1,0.0,,,60.0,40.0,80.0,5.0
45.64804779342376,1837,296.5466613769531,330.9636535644531,-0.0012173843570053577,2.6417534351348877,0.006092528346925974,-0.007141112349927425,6.421303749084473,0.2917916476726532,-9.524344932287931e-05,6.427930009943259,23.14054803579573,0.49790406227111816,-0.0016540996730327606,0.0,False,1,0.0,,,60.0,40.0,80.0,5.0
45.682172644650564,1838,296.7662048339844,330.9736633300781,-0.0012165831867605448,2.636122226715088,0.008640188723802567,-0.005615233909338713,6.437516212463379,0.29197099804878235,-6.497382855741307e-05,6.444133925800429,23.198882132881547,0.4976538419723511,-0.0014657862484455109,0.0,False,1,0.0,,,60.0,40.0,80.0,5.0
45.71444280794822,1839,296.9744567871094,330.98309326171875,-0.001214904710650444,2.6301348209381104,0.011194679886102676,-0.004608153831213713,6.462486267089844,0.29298269748687744,-3.6082266888115555e-05,6.469124176784168,23.288847036423004,0.4975280463695526,-0.0011620447039604187,0.0,False,1,0.0,,,60.0,40.0,80.0,5.0
45.75083987019025,1840,297.20977783203125,330.99371337890625,-0.0012147522065788507,2.6256189346313477,0.012260189279913902,-0.0033264157827943563,6.462767601013184,0.29193058609962463,-1.8815993826137856e-05,6.469357659935043,23.289687575766155,0.49751871824264526,-0.001498837023973465,0.0,False,1,0.0,,,60.0,40.0,80.0,5.0
45.783221915131435,1841,297.4194641113281,331.00323486328125,-0.0012147140223532915,2.6195404529571533,0.0129090566188097,-0.0025024416390806437,6.484552383422852,0.29265743494033813,-8.258819434558973e-06,6.491153055324535,23.368150999168325,0.4974988102912903,-0.0013100653886795044,0.0,False,1,0.0,,,60.0,40.0,80.0,5.0
45.8214682971593,1842,297.6673278808594,331.0143737792969,-0.0012159728212282062,2.6160011291503906,0.011946000158786774,-0.0016784663312137127,6.473783493041992,0.29138094186782837,2.1457672119140625e-06,6.480337612198253,23.329215403913715,0.4976111650466919,-0.0011458098888397217,0.0,False,1,0.0,,,60.0,40.0,80.0,5.0
45.865184660768136,1843,297.9504699707031,331.02703857421875,-0.0012186431558802724,2.584552049636841,0.009821811690926552,-0.0011596678523346782,6.480717658996582,0.2919244170188904,7.772445314913057e-06,6.4872892058965865,23.35424114122771,0.49751073122024536,-0.001052800565958023,0.0,False,1,0.0,,,60.0,40.0,80.0,5.0
45.89313822216354,1844,298.13153076171875,331.0351867675781,-0.001220169011503458,2.6100730895996094,0.008544566109776497,-0.0007324218167923391,6.475673675537109,0.2907656729221344,8.97407517186366e-06,6.482198255890874,23.33591372120715,0.49772390723228455,-0.0012817606329917908,0.0,False,1,0.0,,,60.0,40.0,80.0,5.0
45.926654524868354,1845,298.3488464355469,331.0447998046875,-0.0012205123202875257,2.5964951515197754,0.008168905973434448,0.001377035048790276,6.491726398468018,0.28638362884521484,1.56593323481502e-05,6.498040259623074,23.392944934643065,0.4985787570476532,-0.005396869033575058,0.0,False,1,0.0,,,60.0,40.0,80.0,5.0
45.96130174375139,1846,298.5740051269531,331.0545654296875,-0.001217536861076951,2.5755066871643066,0.00881094392389059,0.004027841612696648,6.501531600952148,0.2816317677497864,8.957862883107737e-05,6.507628571054866,23.42746285579752,0.49911051988601685,-0.006332211196422577,0.0,False,1,0.0,,,60.0,40.0,80.0,5.0
45.9928036367055,1847,298.77935791015625,331.06341552734375,-0.001211891183629632,2.5581982135772705,0.010627773590385914,0.00386947114020586,6.528903007507324,0.2846291959285736,8.726119995117188e-05,6.535104304311266,23.52637549552056,0.49805620312690735,-0.001337628811597824,0.0,False,1,0.0,,,60.0,40.0,80.0,5.0
46.03006271994673,1848,299.02264404296875,331.0740661621094,-0.0012096023419871926,2.547346830368042,0.011228830553591251,0.003195140277966857,6.523597240447998,0.28413403034210205,1.986503593798261e-05,6.529782010387009,23.507215237393233,0.49776923656463623,-0.0015143975615501404,0.0,False,1,0.0,,,60.0,40.0,80.0,5.0
46.060551676666364,1849,299.22210693359375,331.0827941894531,-0.0012076187413185835,2.538350820541382,0.012342151254415512,0.002653534524142742,6.556275367736816,0.28601816296577454,7.967948477016762e-06,6.562511187586832,23.625040275312596,0.49798232316970825,-0.0011361539363861084,0.0,False,1,0.0,,,60.0,40.0,80.0,5.0
46.08861591457389,1850,299.40618896484375,331.0906677246094,-0.0012058638967573643,2.499446392059326,0.013250566087663174,0.0038119920063763857,6.553668022155762,0.28180745244026184,3.384589945198968e-05,6.559724078497771,23.615006682591975,0.4983164072036743,-0.005376316606998444,0.0,False,1,0.0,,,60.0,40.0,80.0,5.0
46.117270946269855,1851,299.5937194824219,331.0987854003906,-0.0012076949933543801,2.52255916595459,0.011044415645301342,0.003806318622082472,6.539849758148193,0.2814914882183075,3.188133268849924e-05,6.545905003749043,23.565258013496557,0.49801933765411377,-0.0011057481169700623,0.0,False,1,0.0,,,60.0,40.0,80.0,5.0
46.14392619370483,1852,299.7679748535156,331.1062316894531,-0.0012096785940229893,2.485069751739502,0.00888607557862997,0.004284422378987074,6.539678573608398,0.2791967988014221,3.0479430279228836e-05,6.545635698654695,23.564288515156903,0.49814170598983765,-0.004466954618692398,0.0,False,1,0.0,,,60.0,40.0,80.0,5.0
46.17407517856918,1853,299.9657287597656,331.1146545410156,-0.0012073135003447533,2.4715731143951416,0.009862792678177357,0.005182298831641674,6.574581623077393,0.2778504192829132,4.928111957269721e-05,6.580450165181047,23.68962059465177,0.4979722499847412,-0.004130072891712189,0.0,False,1,0.0,,,60.0,40.0,80.0,5.0
46.21103483787738,1854,300.2088317871094,331.12493896484375,-0.0012046813499182463,2.4547698497772217,0.010928302071988583,0.004262622445821762,6.5714287757873535,0.27959486842155457,1.6174315533135086e-05,6.577374053978939,23.67854659432418,0.4992852509021759,-0.0007911436259746552,0.0,False,1,0.0,,,60.0,40.0,80.0,5.0
46.25093347555958,1855,300.47039794921875,331.1354675292969,-0.0012071990640833974,2.4136717319488525,0.006905321031808853,0.010814927518367767,6.546013832092285,0.26007500290870667,0.00014669417578261346,6.551178223693863,23.584241605297905,0.49967652559280396,-0.016499698162078857,0.0,False,1,0.0,,,60.0,40.0,80.0,5.0
