time_stamp,frame,x,y,z,yaw,pitch,roll,vx,vy,vz,speed_mps,speed_kmh,throttle,steer,brake,reverse,gear,collision_impulse,collision_with,lane_invasion,weather_cloud,weather_rain,weather_wetness,weather_fog
70.45964242867194,3078,263.4404602050781,330.9753723144531,-0.001219520578160882,-0.836456298828125,0.07076075673103333,0.00940417405217886,1.754364013671875,-0.06042620539665222,0.00010551452578511089,1.755404349401825,6.31945565784657,0.5042974352836609,-0.03835722431540489,0.0,False,1,0.0,,,60.0,40.0,80.0,5.0
70.48950598365627,3079,263.49200439453125,330.9735412597656,-0.0012831115163862705,-0.8992612957954407,0.06373248994350433,0.00813688151538372,1.713138222694397,-0.05853636935353279,-0.0015315627679228783,1.7141386823352778,6.170899256407,0.5045421123504639,-0.03960318863391876,0.0,False,1,0.0,,,60.0,40.0,80.0,5.0
70.5260126737412,3080,263.5552978515625,330.97119140625,-0.0013011168921366334,-0.9761961698532104,0.055201586335897446,0.007705551106482744,1.726614236831665,-0.06118710711598396,-0.00011988639744231477,1.72769806369046,6.219713029285656,0.5045421123504639,-0.03960318863391876,0.0,False,1,0.0,,,60.0,40.0,80.0,5.0
70.5651027073618,3081,263.6236572265625,330.96832275390625,-0.0013364028418436646,-1.07342529296875,0.04715562239289284,0.010420765727758408,1.7389315366744995,-0.07100372016429901,-0.0004134654882363975,1.7403805872486673,6.2653701140952025,0.5047146677970886,-0.05121876299381256,0.0,False,1,0.0,,,60.0,40.0,80.0,5.0
70.60924272588454,3082,263.7024841308594,330.9650573730469,-0.001311721745878458,-1.170440673828125,0.04337169975042343,0.009580234065651894,1.8169195652008057,-0.0722590833902359,0.0005098724504932761,1.8183559446686441,6.546081400807119,0.5048755407333374,-0.03854702413082123,0.0,False,1,0.0,,,60.0,40.0,80.0,5.0
70.66156095615588,3083,263.7987976074219,330.9610900878906,-0.0012904357863590121,-1.284149169921875,0.042777471244335175,0.008983051404356956,1.8808538913726807,-0.07715758681297302,0.0002909183385781944,1.8824358524337654,6.776769068761555,0.5047659873962402,-0.03828756511211395,0.0,False,1,0.0,,,60.0,40.0,80.0,5.0
70.6978149858769,3084,263.867431640625,330.9581298828125,-0.0012939834268763661,-1.36328125,0.04308483004570007,0.00900245364755392,1.9213720560073853,-0.08073205500841141,-8.034706115722656e-05,1.9230674061944835,6.923042662300141,0.5050141215324402,-0.037684205919504166,0.0,False,1,0.0,,,60.0,40.0,80.0,5.0
70.73043211153708,3085,263.9308166503906,330.9553527832031,-0.0012657928746193647,-1.4340211153030396,0.044771887362003326,0.00932801142334938,1.9721510410308838,-0.08501384407281876,0.0006396484095603228,1.9739826472067388,7.10633752994426,0.504779040813446,-0.03757232427597046,0.0,False,1,0.0,,,60.0,40.0,80.0,5.0
70.76816768548451,3086,264.005615234375,330.9519348144531,-0.001292381202802062,-1.518768310546875,0.045407094061374664,0.01001800037920475,2.009847640991211,-0.09029897302389145,-0.0005601120064966381,2.0118751845610516,7.242750664419786,0.5047093629837036,-0.038997046649456024,0.0,False,1,0.0,,,60.0,40.0,80.0,5.0
70.80179915926419,3087,264.0738830566406,330.94873046875,-0.0012704848777502775,-1.595428466796875,0.0465204156935215,0.010512910783290863,2.0576109886169434,-0.09477407485246658,0.000494089093990624,2.0597925502014443,7.415253180725199,0.5048086643218994,-0.0381164625287056,0.0,False,1,0.0,,,60.0,40.0,80.0,5.0
70.83584723970853,3088,264.14459228515625,330.9453125,-0.0012597274035215378,-1.671875,0.047886453568935394,0.010949250310659409,2.1040501594543457,-0.0995822623372078,0.00021056174591649324,2.106405408464454,7.583059470472034,0.5048086643218994,-0.0381164625287056,0.0,False,1,0.0,,,60.0,40.0,80.0,5.0
70.87686384818517,3089,264.2319030761719,330.9410095214844,-0.0012418364640325308,-1.767242431640625,0.04932079464197159,0.01138658169656992,2.14542818069458,-0.10435527563095093,0.0002773284795694053,2.1479646596211848,7.732672774636265,0.5046356916427612,-0.0381164625287056,0.0,False,1,0.0,,,60.0,40.0,80.0,5.0
70.91540448716842,3090,264.31561279296875,330.9367370605469,-0.0012869262136518955,-1.8571170568466187,0.04841920733451843,0.011505012400448322,2.1687870025634766,-0.10821258276700974,-0.0008827495621517301,2.171485161083116,7.817346579899217,0.5044366121292114,-0.03789059817790985,0.0,False,1,0.0,,,60.0,40.0,80.0,5.0
70.94877327955328,3091,264.3894348144531,330.9328918457031,-0.001265678321942687,-1.9354859590530396,0.04833041504025459,0.01188376359641552,2.2218472957611084,-0.11408356577157974,0.0005254173302091658,2.224774312536775,8.009187525132392,0.5043766498565674,-0.03789059817790985,0.0,False,1,0.0,,,60.0,40.0,80.0,5.0
70.9829595645424,3092,264.4665832519531,330.92840576171875,-0.0012569427490234375,-2.031036138534546,0.04867875576019287,0.01618114672601223,2.264021158218384,-0.13067744672298431,0.00024084090546239167,2.267789332796786,8.164041598068431,0.5050745606422424,-0.05248643457889557,0.0,False,1,0.0,,,60.0,40.0,80.0,5.0
71.02088155574165,3093,264.5534973144531,330.92333984375,-0.0012847899924963713,-2.132110834121704,0.047538112848997116,0.015286820009350777,2.292898178100586,-0.12870444357395172,-0.0005429076845757663,2.2965076058400986,8.267427381024355,0.5044348239898682,-0.03889083117246628,0.0,False,1,0.0,,,60.0,40.0,80.0,5.0
71.05673807463609,3094,264.6370544433594,330.9185485839844,-0.0012823486467823386,-2.220428705215454,0.04669800028204918,0.013541679829359055,2.336317300796509,-0.1316109299659729,6.10446950304322e-05,2.340021361144818,8.424076900121346,0.5041971206665039,-0.036825235933065414,0.0,False,1,0.0,,,60.0,40.0,80.0,5.0
71.09434230229817,3095,264.72613525390625,330.9133605957031,-0.0012974548153579235,-2.3115234375,0.04569396376609802,0.012696403078734875,2.3718321323394775,-0.13626430928707123,-0.00027916906401515007,2.375743189807956,8.552675483308642,0.5041971206665039,-0.036825235933065414,0.0,False,1,0.0,,,60.0,40.0,80.0,5.0
71.12875239900313,3096,264.80914306640625,330.90814208984375,-0.0012756729265674949,-2.407806873321533,0.04591253027319908,0.01598254218697548,2.4221580028533936,-0.1519450694322586,0.0005535411764867604,2.4269192407905433,8.736909266845956,0.5052589178085327,-0.04825925827026367,0.0,False,1,0.0,,,60.0,40.0,80.0,5.0
71.16653084731661,3097,264.90185546875,330.90240478515625,-0.0012921142624691129,-2.500488758087158,0.04574860632419586,0.013550572097301483,2.457996129989624,-0.14732149243354797,-0.0003650665166787803,2.462407100877184,8.864665563157864,0.5041589736938477,-0.032186828553676605,0.0,False,1,0.0,,,60.0,40.0,80.0,5.0
71.20299115753733,3098,264.99285888671875,330.8968811035156,-0.0012902449816465378,-2.582581043243408,0.0458032451570034,0.011643767356872559,2.5037717819213867,-0.15110445022583008,3.885268961312249e-05,2.5083272697822703,9.029978171216174,0.5039127469062805,-0.032186828553676605,0.0,False,1,0.0,,,60.0,40.0,80.0,5.0
71.23601925722323,3099,265.07696533203125,330.89178466796875,-0.0012622070498764515,-2.648285388946533,0.047203436493873596,0.009786243550479412,2.560506582260132,-0.15298721194267273,0.0006186103564687073,2.5650729867772237,9.234262752398006,0.5039635896682739,-0.02749166265130043,0.0,False,1,0.0,,,60.0,40.0,80.0,5.0
71.27053035399877,3100,265.16656494140625,330.8863220214844,-0.0012577056186273694,-2.712799310684204,0.04876071959733963,0.008851714432239532,2.6068639755249023,-0.157232865691185,3.55339034285862e-05,2.6116014171779005,9.401765101840443,0.5039635896682739,-0.02749166265130043,0.0,False,1,0.0,,,60.0,40.0,80.0,5.0
71.30439627519809,3101,265.256103515625,330.88092041015625,-0.0012517547002062201,-2.769684314727783,0.050085775554180145,0.0072535304352641106,2.6558737754821777,-0.15803223848342896,6.751060573151335e-05,2.6605713116268324,9.578056721856596,0.503633975982666,-0.0224838238209486,0.0,False,1,0.0,,,60.0,40.0,80.0,5.0
71.33573752990924,3102,265.340576171875,330.8758850097656,-0.001232147216796875,-2.8154296875,0.05176600068807602,0.005825606640428305,2.7098371982574463,-0.16000840067863464,0.00041682718438096344,2.714557146772269,9.77240572838017,0.5030235052108765,-0.019993528723716736,0.0,False,1,0.0,,,60.0,40.0,80.0,5.0
71.37103247246705,3103,265.4372863769531,330.8701171875,-0.0012532043037936091,-2.864898681640625,0.052544642239809036,0.005172628443688154,2.7488949298858643,-0.16335059702396393,-0.0005222702166065574,2.7537441830835476,9.913479059100771,0.5030414462089539,-0.019993528723716736,0.0,False,1,0.0,,,60.0,40.0,80.0,5.0
71.4055818093475,3104,265.5334777832031,330.8643798828125,-0.0012605285737663507,-2.91143798828125,0.052688077092170715,0.004582936409860849,2.7946128845214844,-0.16581450402736664,-0.0001815795840229839,2.799527756077885,10.078299921880387,0.5031656622886658,-0.017745276913046837,0.0,False,1,0.0,,,60.0,40.0,80.0,5.0
71.43774391687475,3105,265.6245422363281,330.85894775390625,-0.0012472915695980191,-2.950531005859375,0.053357433527708054,0.004095708020031452,2.8467020988464355,-0.16882333159446716,0.000296607002383098,2.8517037442278377,10.266133479220215,0.50301194190979,-0.016215886920690536,0.0,False,1,0.0,,,60.0,40.0,80.0,5.0
71.47243733308278,3106,265.7243957519531,330.8529357910156,-0.0012596893357113004,-2.991150379180908,0.05377407744526863,0.004083456937223673,2.890120267868042,-0.17268407344818115,-0.0003002548182848841,2.8952746056492216,10.422988580337197,0.503261148929596,-0.016215886920690536,0.0,False,1,0.0,,,60.0,40.0,80.0,5.0
71.50491231656633,3107,265.81939697265625,330.84716796875,-0.0012498855357989669,-3.029297351837158,0.05437513440847397,0.00449199415743351,2.9414448738098145,-0.1775626689195633,0.00022571085719391704,2.9467993650741247,10.608477714266849,0.5038195848464966,-0.016300026327371597,0.0,False,1,0.0,,,60.0,40.0,80.0,5.0
71.53657408780418,3108,265.91363525390625,330.8414306640625,-0.0012380217667669058,-3.066162586212158,0.055358681827783585,0.0050850072875618935,2.9924654960632324,-0.18263927102088928,0.0002678251184988767,2.998033842400433,10.792921832641559,0.5040745735168457,-0.01642274484038353,0.0,False,1,0.0,,,60.0,40.0,80.0,5.0
71.57105990848504,3109,266.0179138183594,330.8349609375,-0.0012525558704510331,-3.105285882949829,0.05593924596905708,0.005222831387072802,3.038065195083618,-0.18614740669727325,-0.0003609561827033758,3.0437626577786823,10.957545568003257,0.5038379430770874,-0.015110686421394348,0.0,False,1,0.0,,,60.0,40.0,80.0,5.0
71.6072942239698,3110,266.1291198730469,330.828125,-0.0012770843459293246,-3.144623279571533,0.055563587695360184,0.00492630572989583,3.082965135574341,-0.18918727338314056,-0.0005252933478914201,3.0887644985511864,11.119552194784271,0.5039650797843933,-0.013782846741378307,0.0,False,1,0.0,,,60.0,40.0,80.0,5.0
71.64414027309977,3111,266.24365234375,330.8210144042969,-0.0012970351381227374,-3.182831048965454,0.05428634211421013,0.005116904620081186,3.1245968341827393,-0.19383437931537628,-0.0003627300320658833,3.1306033403103704,11.270172025117333,0.5044702291488647,-0.014383019879460335,0.0,False,1,0.0,,,60.0,40.0,80.0,5.0
71.68293483532034,3112,266.36590576171875,330.8133239746094,-0.0013253402430564165,-3.223511219024658,0.052729059010744095,0.005516311153769493,3.1674864292144775,-0.1986212432384491,-0.00048419952508993447,3.173707754657421,11.425347916766714,0.5076407790184021,-0.014383019879460335,0.0,False,1,0.0,,,60.0,40.0,80.0,5.0
71.72279505408369,3113,266.4932861328125,330.8052978515625,-0.0013490294804796576,-3.260040760040283,0.05152011290192604,0.004625952802598476,3.215261697769165,-0.20023545622825623,-0.0003920078161172569,3.2214906761843216,11.597366434263558,0.5037983655929565,-0.01100564282387495,0.0,False,1,0.0,,,60.0,40.0,80.0,5.0
71.75896507478319,3114,266.61102294921875,330.79791259765625,-0.0013220214750617743,-3.290527820587158,0.052530981600284576,0.004243496805429459,3.2798049449920654,-0.20515967905521393,0.00059988017892465,3.2862153506671885,11.830375262401878,0.5038622617721558,-0.011035691946744919,0.0,False,1,0.0,,,60.0,40.0,80.0,5.0
71.78828493296169,3115,266.70806884765625,330.79156494140625,-0.0013276671525090933,-3.322601795196533,0.05380139872431755,0.007696123793721199,3.3231706619262695,-0.21976199746131897,-0.00015265464026015252,3.330429192629549,11.989545093466376,0.5077246427536011,-0.022506313398480415,0.0,False,1,0.0,,,60.0,40.0,80.0,5.0
71.82168661965989,3116,266.8205871582031,330.7838134765625,-0.0012775802752003074,-3.3776865005493164,0.0566837377846241,0.011468100361526012,3.395284652709961,-0.2319367378950119,0.0011647796491160989,3.403197596382674,12.251511346977626,0.5041419267654419,-0.022506313398480415,0.0,False,1,0.0,,,60.0,40.0,80.0,5.0
71.85522094531916,3117,266.93597412109375,330.7760925292969,-0.0012454986572265625,-3.4220895767211914,0.060535963624715805,0.010103519074618816,3.4661672115325928,-0.23093518614768982,0.0006184673402458429,3.47385183636357,12.505866610908853,0.5050726532936096,-0.012781054712831974,0.0,False,1,0.0,,,60.0,40.0,80.0,5.0
71.88952843635343,3118,267.0563659667969,330.7680358886719,-0.001233596820384264,-3.460571765899658,0.06403301656246185,0.008491378277540207,3.533803939819336,-0.2357298731803894,0.00014136313984636217,3.541657645534904,12.749967523925655,0.5049775838851929,-0.013131494633853436,0.0,False,1,0.0,,,60.0,40.0,80.0,5.0
71.92265420197509,3119,267.1747741699219,330.7600402832031,-0.0012197112664580345,-3.4972848892211914,0.06680607795715332,0.00783165730535984,3.5992841720581055,-0.2415752112865448,0.0002228450757684186,3.607382040149902,12.986575344539647,0.5049775838851929,-0.013131494633853436,0.0,False,1,0.0,,,60.0,40.0,80.0,5.0
71.96008457406424,3120,267.31109619140625,330.7507629394531,-0.0012491989182308316,-3.539734363555908,0.06883464008569717,0.008136589080095291,3.665715456008911,-0.24953018128871918,-0.0006780528929084539,3.6741986303889895,13.227115069400362,0.5050541758537292,-0.014203124679625034,0.0,False,1,0.0,,,60.0,40.0,80.0,5.0
71.99413537769578,3121,267.43731689453125,330.7420959472656,-0.0012360381660982966,-3.5800487995147705,0.07015287131071091,0.008318831212818623,3.7316274642944336,-0.2558090090751648,0.000259590131463483,3.7403852540597415,13.46538691461507,0.5048112273216248,-0.01338526513427496,0.0,False,1,0.0,,,60.0,40.0,80.0,5.0
72.02693122043274,3122,267.56103515625,330.7335205078125,-0.0012191772693768144,-3.6186835765838623,0.07157354801893234,0.008529990911483765,3.797210693359375,-0.2625733017921448,0.0003606033278629184,3.806278224015104,13.702601606454374,0.5048112273216248,-0.01338526513427496,0.0,False,1,0.0,,,60.0,40.0,80.0,5.0
72.0602598504629,3123,267.68896484375,330.724609375,-0.0012137985322624445,-3.656128406524658,0.07291226834058762,0.008311876095831394,3.8626627922058105,-0.2680872082710266,6.921768363099545e-05,3.8719548812351663,13.9390375724466,0.504679799079895,-0.012145661748945713,0.0,False,1,0.0,,,60.0,40.0,80.0,5.0
72.0949186400976,3124,267.82427978515625,330.7151794433594,-0.0012223434168845415,-3.6904611587524414,0.07393679022789001,0.007301956415176392,3.929163932800293,-0.27203530073165894,-0.0002557659172452986,3.9385698522533574,14.178851468112088,0.5044657588005066,-0.009979811497032642,0.0,False,1,0.0,,,60.0,40.0,80.0,5.0
72.13118980987929,3125,267.9683837890625,330.7052001953125,-0.0012428665068000555,-3.7216806411743164,0.07457882910966873,0.00610669981688261,3.997130870819092,-0.27630528807640076,-0.0004749298095703125,4.006669444343056,14.424009999635002,0.5043138861656189,-0.008635638281702995,0.0,False,1,0.0,,,60.0,40.0,80.0,5.0
72.161423135316,3126,268.09027099609375,330.69671630859375,-0.0012119292514398694,-3.7463386058807373,0.07478373497724533,0.00561611307784915,4.052591800689697,-0.28109630942344666,0.0008164786850102246,4.062328901606354,14.624384045782875,0.5044956207275391,-0.008635638281702995,0.0,False,1,0.0,,,60.0,40.0,80.0,5.0
72.19530502310954,3127,268.2288513183594,330.6869812011719,-0.001219100900925696,-3.7758188247680664,0.07473592460155487,0.006014869548380375,4.113571643829346,-0.28830793499946594,-0.000173664084286429,4.1236625910056866,14.845185327620472,0.5051150918006897,-0.00976458191871643,0.0,False,1,0.0,,,60.0,40.0,80.0,5.0
72.2266709653195,3128,268.35894775390625,330.6775817871094,-0.0012055205879732966,-3.8142714500427246,0.07448320835828781,0.009044923819601536,4.168572425842285,-0.30222177505493164,0.0003831720387097448,4.17951363410036,15.046249082761296,0.5059724450111389,-0.01618463173508644,0.0,False,1,0.0,,,60.0,40.0,80.0,5.0
72.26128292432986,3129,268.5045471191406,330.6667785644531,-0.0012198257027193904,-3.8650825023651123,0.07403924316167831,0.011965939775109291,4.228803634643555,-0.3129197061061859,-0.00029840468778274953,4.24036543376741,15.265315561562677,0.5059724450111389,-0.01618463173508644,0.0,False,1,0.0,,,60.0,40.0,80.0,5.0
72.29390044487081,3130,268.6435852050781,330.65618896484375,-0.0012111663818359375,-3.9219682216644287,0.0734655112028122,0.015161121264100075,4.284390926361084,-0.3265824019908905,0.0002620172454044223,4.296819957111115,15.468551845600015,0.5060570240020752,-0.0200439915060997,0.0,False,1,0.0,,,60.0,40.0,80.0,5.0
72.32642175606452,3131,268.7840270996094,330.6452331542969,-0.001204261789098382,-3.9841012954711914,0.07286445051431656,0.017491981387138367,4.339276313781738,-0.33729469776153564,0.00020892142492812127,4.35236564228391,15.668516312222078,0.5060570240020752,-0.0200439915060997,0.0,False,1,0.0,,,60.0,40.0,80.0,5.0
72.36324972263537,3132,268.94525146484375,330.632568359375,-0.0012353515485301614,-4.0527663230896,0.0720653235912323,0.017908502370119095,4.400773525238037,-0.34558552503585815,-0.0006283378461375833,4.414321847165064,15.891558649794229,0.5056501626968384,-0.017967304214835167,0.0,False,1,0.0,,,60.0,40.0,80.0,5.0
72.3987113086041,3133,269.1025695800781,330.6200256347656,-0.0012401199201121926,-4.117676734924316,0.07125935703516006,0.017915872856974602,4.458863735198975,-0.35470035672187805,-6.003379530739039e-05,4.472949603531794,16.10261857271446,0.5056501626968384,-0.017967304214835167,0.0,False,1,0.0,,,60.0,40.0,80.0,5.0
72.4326845293399,3134,269.2552185058594,330.6077575683594,-0.001230697613209486,-4.177370071411133,0.07043290883302689,0.01730300299823284,4.513730525970459,-0.3617454469203949,0.00024802208645269275,4.528203075278332,16.301531071001996,0.5052318572998047,-0.016455944627523422,0.0,False,1,0.0,,,60.0,40.0,80.0,5.0
72.46433430514298,3135,269.3990783691406,330.5960998535156,-0.0012102127075195312,-4.231935024261475,0.06962694227695465,0.016930002719163895,4.56389856338501,-0.36949625611305237,0.0005425739218480885,4.57883149663053,16.48379338786991,0.50503009557724,-0.01654718443751335,0.0,False,1,0.0,,,60.0,40.0,80.0,5.0
72.49537301412784,3136,269.5416564941406,330.5843811035156,-0.0011953734792768955,-4.285585403442383,0.06880049407482147,0.01684126816689968,4.612400531768799,-0.3774091601371765,0.00039988517528399825,4.627815521336681,16.660135876812053,0.5066992044448853,-0.01654718443751335,0.0,False,1,0.0,,,60.0,40.0,80.0,5.0
72.52836453146301,3137,269.6948547363281,330.57159423828125,-0.0012009430211037397,-4.349153518676758,0.06788524985313416,0.01847466081380844,4.662728309631348,-0.3906712234020233,-9.935379057424143e-05,4.67906607178219,16.844637858415883,0.5048596858978271,-0.020120762288570404,0.0,False,1,0.0,,,60.0,40.0,80.0,5.0
72.56070781103335,3138,269.8465881347656,330.5581970214844,-0.001197395264171064,-4.4363112449646,0.06692901998758316,0.025041144341230392,4.709765911102295,-0.4170129597187042,0.00019621371757239103,4.728191491940064,17.02148937098423,0.5063725113868713,-0.03217893838882446,0.0,False,1,0.0,,,60.0,40.0,80.0,5.0
72.59491511038505,3139,270.0087585449219,330.5435791015625,-0.0012056732084602118,-4.534059524536133,0.06597279012203217,0.027966510504484177,4.760774612426758,-0.4272352457046509,-0.00014206886407919228,4.779906367878247,17.207662924361692,0.505172610282898,-0.02547966130077839,0.0,False,1,0.0,,,60.0,40.0,80.0,5.0
72.63032578653656,3140,270.178466796875,330.52801513671875,-0.0012195586459711194,-4.632874488830566,0.06498924642801285,0.028789343312382698,4.812422275543213,-0.43965211510658264,-0.00027670859708450735,4.832463369445221,17.396868130002794,0.5050227642059326,-0.02547966130077839,0.0,False,1,0.0,,,60.0,40.0,80.0,5.0
72.66328207380138,3141,270.3380432128906,330.5131530761719,-0.0012080001179128885,-4.725251197814941,0.06409449130296707,0.029287956655025482,4.859629154205322,-0.4519518315792084,0.0003170776180922985,4.880599970803626,17.570159894893056,0.5059481859207153,-0.02573864534497261,0.0,False,1,0.0,,,60.0,40.0,80.0,5.0
72.69904778874479,3142,270.5129699707031,330.49652099609375,-0.0012234115274623036,-4.827760696411133,0.06309045106172562,0.030022868886590004,4.9098687171936035,-0.4661610722541809,-0.00030117033747956157,4.931948606389274,17.755014983001388,0.5043277740478516,-0.026364518329501152,0.0,False,1,0.0,,,60.0,40.0,80.0,5.0
72.73580080247484,3143,270.6945495605469,330.4789733886719,-0.0012398910475894809,-4.934999465942383,0.06205909699201584,0.030700495466589928,4.960495471954346,-0.48041173815727234,-0.0002945232263300568,4.983704530987245,17.941336311554082,0.5043277740478516,-0.026364518329501152,0.0,False,1,0.0,,,60.0,40.0,80.0,5.0
72.76892309240066,3144,270.8598327636719,330.4627685546875,-0.0011457443470135331,-5.026674270629883,0.06108921021223068,0.02959279716014862,5.005792617797852,-0.48877662420272827,0.004619436338543892,5.029600745581956,18.106562684095042,0.5043628215789795,-0.023051641881465912,0.0,False,1,0.0,,,60.0,40.0,80.0,5.0
72.80558278388344,3145,271.04443359375,330.44451904296875,-0.0010381698375567794,-5.120578289031982,0.05999637767672539,0.02750793844461441,5.054920673370361,-0.497830331325531,0.0021226692479103804,5.079376197780539,18.285754312009942,0.5045729279518127,-0.021268099546432495,0.0,False,1,0.0,,,60.0,40.0,80.0,5.0
72.84363017580472,3146,271.23712158203125,330.4251403808594,-0.0009991454426199198,-5.236026763916016,0.055215246975421906,0.0273556150496006,5.048776149749756,-0.5054247379302979,0.0007461547502316535,5.0740117592237395,18.26644233320546,0.5059614181518555,-0.023691054433584213,0.0,False,1,0.0,,,60.0,40.0,80.0,5.0
72.87673899135552,3147,271.40301513671875,330.40838623046875,-0.0010074996389448643,-5.320255279541016,0.042121775448322296,0.024894148111343384,4.996124744415283,-0.5023118853569031,2.6845931643038057e-05,5.021312546799909,18.076725168479673,0.5045095682144165,-0.018742915242910385,0.0,False,1,0.0,,,60.0,40.0,80.0,5.0
72.91637149057351,3148,271.60064697265625,330.3883056640625,-0.001082191476598382,-5.403079986572266,0.030080150812864304,0.023008247837424278,5.020932674407959,-0.5110167860984802,0.0007138538057915866,5.046870672624684,18.168734421448864,0.504152774810791,-0.018742915242910385,0.0,False,1,0.0,,,60.0,40.0,80.0,5.0
72.95293879485689,3149,271.78497314453125,330.3695373535156,-0.0010731506627053022,-5.455630779266357,0.02865947224199772,0.02061045542359352,5.03078556060791,-0.5132067203521729,9.032249363372102e-05,5.056894749032635,18.204821096517485,0.5027083158493042,-0.014038984663784504,0.0,False,1,0.0,,,60.0,40.0,80.0,5.0
72.99722482613288,3150,272.00616455078125,330.3467102050781,-0.0010824584169313312,-5.549961090087891,0.016665659844875336,0.019934440031647682,4.973849773406982,-0.5100845098495483,0.00029756544972769916,4.999936786015834,17.999772429657003,0.5021534562110901,-0.014280836097896099,0.0,False,1,0.0,,,60.0,40.0,80.0,5.0
73.03135339147411,3151,272.1787414550781,330.3289489746094,-0.0010986708803102374,-5.599246501922607,0.021194076165556908,0.018527954816818237,5.103893756866455,-0.5251969695091248,0.00042918205144815147,5.130844328408257,18.471039582269725,0.5012698173522949,-0.01144186221063137,0.0,False,1,0.0,,,60.0,40.0,80.0,5.0
73.06675060815178,3152,272.36151123046875,330.30999755859375,-0.0010785674676299095,-5.643344402313232,0.03294200077652931,0.017360052093863487,5.1825995445251465,-0.5362289547920227,-7.4577328632585704e-06,5.210266742780567,18.75696027401004,0.5012698173522949,-0.01144186221063137,0.0,False,1,0.0,,,60.0,40.0,80.0,5.0
73.10102243325673,3153,272.53790283203125,330.2918701171875,-0.001087455777451396,-5.682223796844482,0.03078366070985794,0.013312187977135181,5.134005069732666,-0.5263565182685852,-0.00027441023848950863,5.160916518959159,18.579299468252973,0.499009370803833,-0.003776334226131439,0.0,False,1,0.0,,,60.0,40.0,80.0,5.0
73.13493156409822,3154,272.7111511230469,330.274169921875,-0.0011114501394331455,-5.705844402313232,0.022471321746706963,0.008967718109488487,5.099795341491699,-0.5188182592391968,-0.0004455089510884136,5.126117937552613,18.454024575189408,0.49796897172927856,-0.0012476425617933273,0.0,False,1,0.0,,,60.0,40.0,80.0,5.0
73.16838863841258,3155,272.8811950683594,330.25689697265625,-0.0011377334594726562,-5.720157146453857,0.01401554699987173,0.005981422495096922,5.075311183929443,-0.5144128203392029,-0.00046290396130643785,5.101313985408926,18.364730347472136,0.4984204173088074,-0.0012476425617933273,0.0,False,1,0.0,,,60.0,40.0,80.0,5.0
73.20331151760183,3156,273.05780029296875,330.2391052246094,-0.0011633300455287099,-5.729556560516357,0.0063110943883657455,0.003859758609905839,5.049176216125488,-0.5102464556694031,-0.00042748451232910156,5.074892322971346,18.269612362696847,0.4982220530509949,-0.0005882587283849716,0.0,False,1,0.0,,,60.0,40.0,80.0,5.0
73.24014091095887,3157,273.2429504394531,330.2201232910156,-0.0011851501185446978,-5.750064849853516,-0.0009152452694252133,0.0062602609395980835,5.017218589782715,-0.5159316658973694,-0.0002585792390163988,5.043676033251948,18.157233719707015,0.5021353960037231,-0.010487942956387997,0.0,False,1,0.0,,,60.0,40.0,80.0,5.0
73.27456846437417,3158,273.4153747558594,330.2024230957031,-0.001197280827909708,-5.770023345947266,-0.0051294718869030476,0.006286977790296078,5.00604248046875,-0.5140480995178223,-0.00016116141341626644,5.0323659237826295,18.116517325617465,0.498935729265213,-0.0034460164606571198,0.0,False,1,0.0,,,60.0,40.0,80.0,5.0
73.30759587488137,3159,273.5807800292969,330.185546875,-0.0012036132393404841,-5.781834125518799,-0.006133509334176779,0.0042618559673428535,5.008934020996094,-0.511456310749054,-9.220123320119455e-05,5.034978410380544,18.12592227736996,0.498031884431839,-8.43629240989685e-05,0.0,False,1,0.0,,,60.0,40.0,80.0,5.0
73.33939624927007,3160,273.7403259277344,330.16925048828125,-0.0012070083757862449,-5.790011882781982,-0.004576226696372032,0.003378932597115636,5.023272514343262,-0.5134904980659485,-0.00015053272363729775,5.049449402422069,18.17801784871945,0.4985172152519226,-0.002120768651366234,0.0,False,1,0.0,,,60.0,40.0,80.0,5.0
73.37229775986634,3161,273.9057922363281,330.1523742675781,-0.0012094879057258368,-5.798374176025391,-0.002165169920772314,0.00296447379514575,5.032567024230957,-0.5149782299995422,-0.0001510810834588483,5.0588470478534715,18.211849372272496,0.49801820516586304,-0.002120768651366234,0.0,False,1,0.0,,,60.0,40.0,80.0,5.0
73.40622654161416,3162,274.07666015625,330.13470458984375,-0.0012104033958166838,-5.815616607666016,-0.00036883019492961466,0.005215468816459179,5.035830974578857,-0.5224605202674866,-5.597114432021044e-05,5.062860713361448,18.226298568101214,0.5012215375900269,-0.008817773312330246,0.0,False,1,0.0,,,60.0,40.0,80.0,5.0
73.43990761390887,3163,274.2464294433594,330.1171875,-0.0012095641577616334,-5.831394672393799,0.0011133208172395825,0.004830780439078808,5.0438551902771,-0.521113395690918,-3.088951052632183e-05,5.070703536256869,18.25453273052473,0.49814367294311523,-0.001535944640636444,0.0,False,1,0.0,,,60.0,40.0,80.0,5.0
73.4778484327253,3164,274.4375305175781,330.0974426269531,-0.0012124251807108521,-5.843937397003174,0.0007103396346792579,0.003468836424872279,5.029280662536621,-0.5186382532119751,-8.193969551939517e-05,5.0559519011728815,18.201426844222375,0.4972367286682129,-0.0012433752417564392,0.0,False,1,0.0,,,60.0,40.0,80.0,5.0
73.51114073744975,3165,274.6053161621094,330.0801086425781,-0.0012140274047851562,-5.854099750518799,0.0013592075556516647,0.0036567645147442818,5.047072410583496,-0.5229911804199219,-6.634712190134451e-05,5.07409693412257,18.266748962841255,0.49813491106033325,-0.004015019163489342,0.0,False,1,0.0,,,60.0,40.0,80.0,5.0
73.54473230219446,3166,274.7752380371094,330.0624084472656,-0.0012119292514398694,-5.867191791534424,0.0036678113974630833,0.004171545151621103,5.063986301422119,-0.526603102684021,-1.508712739450857e-05,5.091293361119052,18.32865610002859,0.4980493187904358,-0.004015019163489342,0.0,False,1,0.0,,,60.0,40.0,80.0,5.0
73.57589098601602,3167,274.9337158203125,330.0458984375,-0.0012073135003447533,-5.880558490753174,0.007479056715965271,0.004706051200628281,5.098912715911865,-0.5322405695915222,-2.7513503937370842e-06,5.126615931432195,18.4558173531559,0.49903881549835205,-0.0044467877596616745,0.0,False,1,0.0,,,60.0,40.0,80.0,5.0
73.60700188367628,3168,275.0930480957031,330.0291748046875,-0.0012007522163912654,-5.895176410675049,0.012417282909154892,0.005121760070323944,5.133580684661865,-0.5375752449035645,5.884170604986139e-06,5.161650684606731,18.581942464584234,0.49903881549835205,-0.0044467877596616745,0.0,False,1,0.0,,,60.0,40.0,80.0,5.0
73.64386378764175,3169,275.2823486328125,330.0090026855469,-0.0011961746495217085,-5.926120758056641,0.014630264602601528,0.008441244252026081,5.130807876586914,-0.5469759106636047,8.111953502520919e-05,5.159881017995762,18.575571664784743,0.5007076859474182,-0.012262311764061451,0.0,False,1,0.0,,,60.0,40.0,80.0,5.0
73.68506719707511,3170,275.494384765625,329.9861145019531,-0.0011898040538653731,-5.969731330871582,0.01566162332892418,0.0116988904774189,5.1582512855529785,-0.5581458806991577,0.00013063430378679186,5.188360354304211,18.678097275495162,0.5007076859474182,-0.012262311764061451,0.0,False,1,0.0,,,60.0,40.0,80.0,5.0
73.7214006872382,3171,275.681884765625,329.965576171875,-0.0011847305577248335,-6.019383907318115,0.01553867943584919,0.014343374408781528,5.159106731414795,-0.5664144158363342,0.000147161481436342,5.1901067020103895,18.684384127237404,0.5005378723144531,-0.01482298132032156,0.0,False,1,0.0,,,60.0,40.0,80.0,5.0
73.75425916700624,3172,275.8518371582031,329.94647216796875,-0.0011787795228883624,-6.079960823059082,0.016009962186217308,0.01873934268951416,5.183347225189209,-0.5829184055328369,0.00018281936354469508,5.216021698364429,18.777678114111946,0.49939295649528503,-0.02213684469461441,0.0,False,1,0.0,,,60.0,40.0,80.0,5.0
73.78567770658992,3173,276.0154113769531,329.9276428222656,-0.001168060232885182,-6.153477191925049,0.018646415323019028,0.02375892922282219,5.218397617340088,-0.6008430123329163,0.0002693605492822826,5.252874079081384,18.910346684692986,0.4990379512310028,-0.02552098035812378,0.0,False,1,0.0,,,60.0,40.0,80.0,5.0
73.82170107378624,3174,276.2035827636719,329.9053955078125,-0.0011560439597815275,-6.255864143371582,0.019903169944882393,0.029641542583703995,5.222437858581543,-0.6185019016265869,0.0002927494060713798,5.25893543169753,18.93216755411111,0.49766409397125244,-0.03060784377157688,0.0,False,1,0.0,,,60.0,40.0,80.0,5.0
73.86069099023007,3175,276.40673828125,329.8807373046875,-0.0011435699416324496,-6.382756233215332,0.016201207414269447,0.03330506384372711,5.205534934997559,-0.6331675052642822,0.0008682155166752636,5.243900819332953,18.87804294959863,0.49718183279037476,-0.03258204460144043,0.0,False,1,0.0,,,60.0,40.0,80.0,5.0
73.90394185646437,3176,276.63232421875,329.8525695800781,-0.001130180316977203,-6.539434432983398,0.014070188626646996,0.03661118447780609,5.2256364822387695,-0.6534887552261353,0.0002843570546247065,5.266338792612067,18.95881965340344,0.49718183279037476,-0.03258204460144043,0.0,False,1,0.0,,,60.0,40.0,80.0,5.0
73.94160987599753,3177,276.8291320800781,329.8274230957031,-0.0011244200868532062,-6.679174423217773,0.012690491043031216,0.03865191712975502,5.222522258758545,-0.6671039462089539,0.00014470099995378405,5.2649564517870795,18.953843226433488,0.49646449089050293,-0.03298325464129448,0.0,False,1,0.0,,,60.0,40.0,80.0,5.0
73.99016945972107,3178,277.082275390625,329.7943420410156,-0.0011254883138462901,-6.858129978179932,0.008824603632092476,0.04010935127735138,5.20948600769043,-0.6829752326011658,4.6548841055482626e-05,5.254065058108415,18.914634209190293,0.4965261220932007,-0.0331876315176487,0.0,False,1,0.0,,,60.0,40.0,80.0,5.0
74.03196370392106,3179,277.3009948730469,329.76507568359375,-0.0011228942312300205,-7.017035484313965,0.01041603833436966,0.04066676273941994,5.250516414642334,-0.7022455930709839,-1.0423659659863915e-05,5.297270192610989,19.07017269339956,0.4969562888145447,-0.03109554946422577,0.0,False,1,0.0,,Broken,60.0,40.0,80.0,5.0
74.07460158481263,3180,277.5257263183594,329.7344970703125,-0.0011191939702257514,-7.16947078704834,0.014445849694311619,0.040587007999420166,5.282020568847656,-0.719520628452301,-4.7502515371888876e-05,5.330802118514117,19.19088762665082,0.4973403811454773,-0.030009934678673744,0.0,False,1,0.0,,Broken,60.0,40.0,80.0,5.0
74.10749429627322,3181,277.7001037597656,329.7103576660156,-0.0011166000040248036,-7.287452220916748,0.01781996339559555,0.040667541325092316,5.314033508300781,-0.7346502542495728,-5.9823989431606606e-05,5.364574831894079,19.312469394818685,0.4973403811454773,-0.030009934678673744,0.0,False,1,0.0,,Broken,60.0,40.0,80.0,5.0
74.14056704356335,3182,277.87652587890625,329.68585205078125,-0.0011155700776726007,-7.390541076660156,0.021207736805081367,0.03660670667886734,5.345198631286621,-0.7382570505142212,-0.0001437473256373778,5.395940316683054,19.425385140058996,0.49887752532958984,-0.018663914874196053,0.0,False,1,0.0,,Broken,60.0,40.0,80.0,5.0
74.17140432610177,3183,278.0422058105469,329.6628112792969,-0.0011167144402861595,-7.473609447479248,0.025148754939436913,0.03303166851401329,5.390091896057129,-0.747660756111145,-0.00022501945204567164,5.441698935516663,19.590116167859986,0.49887752532958984,-0.018663914874196053,0.0,False,1,0.0,,Broken,60.0,40.0,80.0,5.0
74.20355668454431,3184,278.21624755859375,329.6387023925781,-0.0011203765170648694,-7.541236400604248,0.029000980779528618,0.027269847691059113,5.4244279861450195,-0.7480194568634033,-0.00029273508698679507,5.47576041937678,19.71273750975641,0.5005991458892822,-0.009654002264142036,0.0,False,1,0.0,,Broken,60.0,40.0,80.0,5.0
74.23726169182919,3185,278.3995361328125,329.61328125,-0.0011285400250926614,-7.605690002441406,0.03053094446659088,0.024894101545214653,5.443764686584473,-0.7575579881668091,-0.000284090026980266,5.496223080356785,19.786403089284427,0.49917200207710266,-0.016476502642035484,0.0,False,1,0.0,,Broken,60.0,40.0,80.0,5.0
74.27657560794614,3186,278.6133117675781,329.5835876464844,-0.0011435699416324496,-7.665260314941406,0.026992905884981155,0.019952835515141487,5.430574417114258,-0.7524155974388123,-0.0002746200480032712,5.482450894125841,19.73682321885303,0.5004011392593384,-0.007137740030884743,0.0,False,1,0.0,,Broken,60.0,40.0,80.0,5.0
74.32000465481542,3187,278.8495788574219,329.55078125,-0.001160850515589118,-7.7192769050598145,0.0231065284460783,0.015635667368769646,5.449925899505615,-0.7549959421157837,-0.0003161811619065702,5.501973398943684,19.80710423619726,0.500073254108429,-0.006818914785981178,0.0,False,1,0.0,,Broken,60.0,40.0,80.0,5.0
74.36024627625011,3188,279.06988525390625,329.5201416015625,-0.0011695480206981301,-7.756629467010498,0.023816868662834167,0.013625296764075756,5.492408752441406,-0.7632189989089966,-0.00018975733837578446,5.5451832413544695,19.96265966887609,0.5001229643821716,-0.007185105234384537,0.0,False,1,0.0,,Broken,60.0,40.0,80.0,5.0
74.39380533783697,3189,279.2547302246094,329.4943542480469,-0.0011719893664121628,-7.787484169006348,0.025237547233700752,0.012785984203219414,5.515593528747559,-0.7687394618988037,-0.00010968207789119333,5.5689076439345415,20.04806751816435,0.5001747012138367,-0.007185105234384537,0.0,False,1,0.0,,Broken,60.0,40.0,80.0,5.0
74.42534288926981,3190,279.42938232421875,329.4699401855469,-0.0011722564231604338,-7.816201686859131,0.027027057483792305,0.012301583774387836,5.550783157348633,-0.7761201858520508,-7.185935828601941e-05,5.604779764447132,20.177207152009675,0.5001747012138367,-0.007185105234384537,0.0,False,1,0.0,,Broken,60.0,40.0,80.0,5.0
74.46134547679685,3191,279.6294860839844,329.4421081542969,-0.0011746978852897882,-7.838112831115723,0.027088528499007225,0.009239478968083858,5.5580034255981445,-0.7731078863143921,-9.198188490699977e-05,5.611514759073782,20.201453132665616,0.49715930223464966,-0.0009408090263605118,0.0,False,1,0.0,,Broken,60.0,40.0,80.0,5.0
74.49902918725275,3192,279.8387451171875,329.41302490234375,-0.0011839293874800205,-7.851510524749756,0.02326362393796444,0.006433836184442043,5.550945281982422,-0.7705312967300415,-0.00012461662117857486,5.60416916396469,20.175008990272882,0.49715930223464966,-0.0009408090263605118,0.0,False,1,0.0,,Broken,60.0,40.0,80.0,5.0
74.54208494140767,3193,280.07818603515625,329.379638671875,-0.0011913299094885588,-7.87485408782959,0.02040860429406166,0.007126856595277786,5.570574760437012,-0.7789219617843628,-4.5766828407067806e-05,5.624768669577663,20.249167210479587,0.49478816986083984,-0.006000896915793419,0.0,False,1,0.0,,Broken,60.0,40.0,80.0,5.0
74.5799025723245,3194,280.2887878417969,329.3500671386719,-0.0011946106096729636,-7.8997578620910645,0.01776532083749771,0.008163969032466412,5.566168308258057,-0.7821851372718811,1.6832351320772432e-05,5.620857872701348,20.23508834172485,0.4942890405654907,-0.00641290470957756,0.0,False,1,0.0,,Broken,60.0,40.0,80.0,5.0
74.61789938970469,3195,280.5001220703125,329.3203430175781,-0.001201629638671875,-7.922952175140381,0.014077018946409225,0.007231207098811865,5.560109615325928,-0.7818738222122192,-0.00012804030848201364,5.614814834408603,20.21333340387097,0.49419593811035156,-0.0037819594144821167,0.0,False,1,0.0,,Broken,60.0,40.0,80.0,5.0
74.66129823937081,3196,280.7419738769531,329.2863464355469,-0.001206359826028347,-7.936898708343506,0.01301833987236023,0.005061449948698282,5.583847999572754,-0.7830891013145447,-5.233764386503026e-05,5.638491555874629,20.298569601148664,0.49351954460144043,-0.0008859559893608093,0.0,False,1,0.0,,Broken,60.0,40.0,80.0,5.0
74.70127756311558,3197,280.96502685546875,329.2554626464844,-0.0012118529994040728,-7.927040100097656,0.010962452739477158,-0.0007629393949173391,5.572955131530762,-0.7697561979293823,-9.520530147710815e-05,5.625864690104962,20.253112884377863,0.4921185374259949,0.009208912029862404,0.0,False,1,0.0,,Broken,60.0,40.0,80.0,5.0
74.74794072448276,3198,281.22503662109375,329.2193298339844,-0.0012177657335996628,-7.925454139709473,0.008073283359408379,0.0006963483756408095,5.574728965759277,-0.7770634293556213,-4.203796197543852e-05,5.628625997229218,20.263053590025184,0.4935035705566406,-0.0032984744757413864,0.0,False,1,0.0,,Broken,60.0,40.0,80.0,5.0
74.78223565011285,3199,281.416748046875,329.19287109375,-0.0012170028639957309,-7.913491725921631,0.00890656653791666,-0.0024414060171693563,5.601282596588135,-0.7705971598625183,2.9153823561500758e-05,5.654041626171428,20.35454985421714,0.49174779653549194,0.008956702426075935,0.0,False,1,0.0,,Broken,60.0,40.0,80.0,5.0
74.81693490385078,3200,281.6116638183594,329.16619873046875,-0.0012105560163035989,-7.889198303222656,0.011215169914066792,-0.005828856490552425,5.623820781707764,-0.7678514122962952,0.00012845992750953883,5.675998237546898,20.43359365516883,0.4907679557800293,0.008160712197422981,0.0,False,1,0.0,,Broken,60.0,40.0,80.0,5.0
74.84953535511158,3201,281.79571533203125,329.1412353515625,-0.0012015914544463158,-7.8602375984191895,0.014486830681562424,-0.00805664248764515,5.658918857574463,-0.7675899863243103,0.0001576089853188023,5.710740499143506,20.55866579691662,0.49105942249298096,0.008578071370720863,0.0,False,1,0.0,,Broken,60.0,40.0,80.0,5.0
74.88677458628081,3202,282.00665283203125,329.11279296875,-0.0011941909324377775,-7.8257527351379395,0.016132906079292297,-0.009246827103197575,5.66321325302124,-0.7645949125289917,0.00012529372179415077,5.714594451503899,20.57254002541404,0.4918663501739502,0.007648514583706856,0.0,False,1,0.0,,Broken,60.0,40.0,80.0,5.0
74.93844020157121,3203,282.300048828125,329.0734558105469,-0.0011888121953234076,-7.7760701179504395,0.016733963042497635,-0.010040284134447575,5.691869258880615,-0.7632631659507751,6.594658043468371e-05,5.742816932920317,20.674140958513142,0.4918663501739502,0.007648514583706856,0.0,False,1,0.0,,Broken,60.0,40.0,80.0,5.0
74.98123393743299,3204,282.5442199707031,329.04058837890625,-0.0011869048466905951,-7.748574256896973,0.01786094345152378,-0.006469726096838713,5.715163230895996,-0.7724304795265198,-3.702163667185232e-05,5.7671257661731055,20.761652758223182,0.4905901849269867,-0.000295393168926239,0.0,False,1,0.0,,Broken,60.0,40.0,80.0,5.0
75.02467085211538,3205,282.7928771972656,329.0063171386719,-0.0011928939493373036,-7.768013954162598,0.01833905652165413,0.003018582472577691,5.7305827140808105,-0.7931235432624817,-0.00018589019600767642,5.7852072765246865,20.826746195488873,0.48968690633773804,-0.012846767902374268,0.0,False,1,0.0,,Broken,60.0,40.0,80.0,5.0
75.06589329405688,3206,283.0298156738281,328.97308349609375,-0.0011907577281817794,-7.8111653327941895,0.019582150503993034,0.00980666745454073,5.760426998138428,-0.8090521097183228,0.00010507583647267893,5.8169652335356705,20.941074840728415,0.4895842969417572,-0.013067702762782574,0.0,False,1,0.0,,Broken,60.0,40.0,80.0,5.0
75.10874661593698,3207,283.2771301269531,328.9381103515625,-0.001183204585686326,-7.870492935180664,0.02036079205572605,0.012762253172695637,5.777884006500244,-0.8179956674575806,0.00015392302884720266,5.8355000238405434,21.007800085825956,0.48267340660095215,-0.010986726731061935,0.0,False,1,0.0,,Broken,60.0,40.0,80.0,5.0
75.14439046545886,3208,283.4831848144531,328.90875244140625,-0.0011800002539530396,-7.919474124908447,0.019226981326937675,0.013901052996516228,5.781311988830566,-0.823729395866394,0.0001206493325298652,5.839700201582844,21.02292072569824,0.48267340660095215,-0.010986726731061935,0.0,False,1,0.0,,Broken,60.0,40.0,80.0,5.0
75.1794842237141,3209,283.68621826171875,328.8800354003906,-0.0011808013077825308,-7.950296401977539,0.017485283315181732,0.009780759923160076,5.789149761199951,-0.816951334476471,-2.7561187380342744e-05,5.846508739518308,21.04743146226591,0.4810967445373535,0.0009030736982822418,0.0,False,1,0.0,,Broken,60.0,40.0,80.0,5.0
75.21159173338674,3210,283.87261962890625,328.8539733886719,-0.0011846160050481558,-7.955605983734131,0.01767652854323387,0.00397453224286437,5.817078590393066,-0.8115574717521667,-0.00018919944704975933,5.873417139328909,21.144301701584073,0.48023051023483276,0.006155816838145256,0.0,False,1,0.0,,Broken,60.0,40.0,80.0,5.0
75.24615184008144,3211,284.073974609375,328.826171875,-0.0011927032610401511,-7.939828872680664,0.018024867400527,-0.002349853515625,5.828390598297119,-0.803156316280365,-0.00022348403581418097,5.883468117075541,21.180485221471947,0.47947371006011963,0.009708454832434654,0.0,False,1,0.0,,Broken,60.0,40.0,80.0,5.0
75.28657559468411,3212,284.31024169921875,328.7939758300781,-0.0011935424990952015,-7.898506164550781,0.018564453348517418,-0.008148193359375,5.856118202209473,-0.7963489294052124,4.964828258380294e-05,5.910016245162012,21.276058482583245,0.4768363833427429,0.011472130194306374,0.0,False,1,0.0,,Broken,60.0,40.0,80.0,5.0
75.32561928941868,3213,284.5386047363281,328.76312255859375,-0.0011929702013731003,-7.853524208068848,0.016050944104790688,-0.01019287109375,5.838653564453125,-0.7901360988616943,0.00011510848707985133,5.891874957403248,21.210749846651694,0.47386372089385986,0.008598299697041512,0.0,False,1,0.0,,Broken,60.0,40.0,80.0,5.0
75.3590703473892,3214,284.7341613769531,328.73675537109375,-0.0011924743885174394,-7.816749095916748,0.013872113078832626,-0.010955810546875,5.852715969085693,-0.7879961133003235,9.138107270700857e-05,5.905524709771147,21.25988895517613,0.4845925569534302,0.008598299697041512,0.0,False,1,0.0,,Broken,60.0,40.0,80.0,5.0
75.39342123060487,3215,284.9354553222656,328.7101135253906,-0.0011894607450813055,-7.7635579109191895,0.012963698245584965,-0.01568603701889515,5.8620524406433105,-0.7741988301277161,0.00016556739865336567,5.9129554938994655,21.286639778038076,0.46325987577438354,0.018608903512358665,0.0,False,1,0.0,,Broken,60.0,40.0,80.0,5.0
75.42859220667742,3216,285.14166259765625,328.68316650390625,-0.0011844253167510033,-7.699319362640381,0.011577170342206955,-0.01876831240952015,5.863687992095947,-0.7666203379631042,0.00019227981101721525,5.913589742973416,21.2889230747043,0.4867607653141022,0.015198877081274986,0.0,False,1,0.0,,Broken,60.0,40.0,80.0,5.0
75.47095658793114,3217,285.3904113769531,328.6512145996094,-0.0011773681035265326,-7.612589359283447,0.010538981296122074,-0.02285766787827015,5.8760857582092285,-0.7533314228057861,0.00020694732666015625,5.924178602409207,21.327042968673148,0.4639846682548523,0.019503595307469368,0.0,False,1,0.0,,Broken,60.0,40.0,80.0,5.0
75.5086712220218,3218,285.6117858886719,328.62322998046875,-0.0011730194091796875,-7.524025917053223,0.008189396001398563,-0.02581787109375,5.862671852111816,-0.7400681972503662,0.00019281386630609632,5.909198102898801,21.273113170435686,0.46128228306770325,0.020289624109864235,0.0,False,1,0.0,,Broken,60.0,40.0,80.0,5.0
75.5427073740866,3219,285.8114013671875,328.59832763671875,-0.0011701964540407062,-7.441260814666748,0.006399886682629585,-0.02703857235610485,5.869362831115723,-0.7323612570762634,0.0001334094995399937,5.914877266008753,21.293558157631512,0.44753220677375793,0.01870274730026722,0.0,False,1,0.0,,Broken,60.0,40.0,80.0,5.0
75.58304950385354,3220,286.0486755371094,328.5686950683594,-0.0011673354310914874,-7.36044979095459,0.00716486806049943,-0.02316284365952015,5.889761924743652,-0.7372210025787354,-3.631115032476373e-05,5.935721551599413,21.36859758575789,0.48068705201148987,0.008647533133625984,0.0,False,1,0.0,,Broken,60.0,40.0,80.0,5.0
75.61776907159947,3221,286.2532043457031,328.54327392578125,-0.001170310890302062,-7.305182456970215,0.007574679329991341,-0.0206603966653347,5.890252590179443,-0.7338200211524963,-0.00012734413030557334,5.93578700896321,21.36883323226756,0.4357897639274597,0.01031564362347126,0.0,False,1,0.0,,Broken,60.0,40.0,80.0,5.0
75.65913440077566,3222,286.4970397949219,328.5128479003906,-0.0011761855566874146,-7.25540828704834,0.007246830500662327,-0.01727295108139515,5.89680290222168,-0.734737753868103,-0.00014338492474053055,5.942400529682294,21.39264190685626,0.43444326519966125,0.006261495873332024,0.0,False,1,0.0,,Broken,60.0,40.0,80.0,5.0
75.69509504898451,3223,286.7088317871094,328.48651123046875,-0.0011841582600027323,-7.219123840332031,0.005505132023245096,-0.015045166946947575,5.883265018463135,-0.7313708066940308,-0.00015772819460835308,5.928550460208169,21.34278165674941,0.43444326519966125,0.006261495873332024,0.0,False,1,0.0,,Broken,60.0,40.0,80.0,5.0
75.72976099490188,3224,286.9125061035156,328.4608154296875,-0.001194915734231472,-7.210028171539307,0.0029506415594369173,-0.0074462890625,5.872374534606934,-0.7446169853210449,-0.00027247428079135716,5.919395003188319,21.309822011477948,0.4391234815120697,-0.00923893041908741,0.0,False,1,0.0,,Broken,60.0,40.0,80.0,5.0
75.76319528906606,3225,287.1087646484375,328.4358215332031,-0.0012076949933543801,-7.217933654785156,0.001379698165692389,-0.002593994140625,5.870242595672607,-0.7479251027107239,-0.0003249359142500907,5.917697203887443,21.303709933994796,0.44091638922691345,-0.0043484363704919815,0.0,False,1,0.0,,Broken,60.0,40.0,80.0,5.0
75.80048026680015,3226,287.3271179199219,328.4079895019531,-0.001221618615090847,-7.226600170135498,-0.0014070188626646996,-0.0016174315242096782,5.846746921539307,-0.743298351764679,-0.00022029876708984375,5.8938053965835175,21.217699427700662,0.4430316686630249,-0.0002085510641336441,0.0,False,1,0.0,,Broken,60.0,40.0,80.0,5.0
75.83528832509182,3227,287.53033447265625,328.3822326660156,-0.0012302016839385033,-7.230811595916748,-0.004063962493091822,-0.0015869138296693563,5.835699558258057,-0.7413986325263977,-0.0001077079723472707,5.882606673760051,21.177384025536185,0.4430316686630249,-0.0002085510641336441,0.0,False,1,0.0,,Broken,60.0,40.0,80.0,5.0
75.86928139789961,3228,287.7286071777344,328.3572692871094,-0.001233062706887722,-7.221107006072998,-0.005341207608580589,-0.004882812034338713,5.831206321716309,-0.7313973307609558,3.098487650277093e-05,5.876896223588481,21.156826404918533,0.4393162131309509,0.008353283628821373,0.0,False,1,0.0,,Broken,60.0,40.0,80.0,5.0
75.90880965604447,3229,287.9584045410156,328.3298034667969,-0.0012270355364307761,-7.138770580291748,-0.008667510002851486,-0.02325439639389515,5.799558162689209,-0.6832098364830017,0.00046781537821516395,5.839661872226284,21.022782740014623,0.438973605632782,0.04404345899820328,0.0,False,1,0.0,,Broken,60.0,40.0,80.0,5.0
75.94797464623116,3230,288.18475341796875,328.3042907714844,-0.0012067413190379739,-6.990149974822998,-0.013612566515803337,-0.0386962927877903,5.76616096496582,-0.6470863819122314,0.0007302284357137978,5.802355865748445,20.8884811166944,0.438973605632782,0.04404345899820328,0.0,False,1,0.0,,Broken,60.0,40.0,80.0,5.0
75.97972504212521,3231,288.3681335449219,328.28448486328125,-0.0011840438237413764,-6.841833591461182,-0.013728679157793522,-0.04742431640625,5.782434463500977,-0.6240121126174927,0.00070937629789114,5.816007216690149,20.937625980084537,0.438973605632782,0.04404345899820328,0.0,False,1,0.0,,Broken,60.0,40.0,80.0,5.0
76.01396868540905,3232,288.5661926269531,328.26422119140625,-0.0011575698154047132,-6.651464462280273,-0.012089434079825878,-0.0584716796875,5.781103610992432,-0.5897397994995117,0.0007047938997857273,5.8111059609060565,20.919981459261805,0.4450557231903076,0.05508829653263092,0.0,False,1,0.0,,Broken,60.0,40.0,80.0,5.0
76.04668310075067,3233,288.7554626464844,328.245849609375,-0.0011332702124491334,-6.444066047668457,-0.010559472255408764,-0.0675964206457138,5.785665035247803,-0.5591859817504883,0.0006598567706532776,5.812624992005435,20.925449971219564,0.4440826177597046,0.0578690841794014,0.0,False,1,0.0,,Broken,60.0,40.0,80.0,5.0
76.08622588007711,3234,288.98358154296875,328.2243957519531,-0.0011139678535982966,-6.203831195831299,-0.011385925114154816,-0.0673827975988388,5.753500938415527,-0.5427587628364563,0.0003690910234581679,5.779044926215083,20.8045617343743,0.46235355734825134,0.04241953045129776,0.0,False,1,0.0,,Broken,60.0,40.0,80.0,5.0
76.12154760374688,3235,289.1865234375,328.2056884765625,-0.0011108017060905695,-6.011143207550049,-0.0129090566188097,-0.0630187913775444,5.742374897003174,-0.5319044589996338,2.9230117434053682e-05,5.766956893552292,20.761044816788253,0.44677266478538513,0.03574785590171814,0.0,False,1,0.0,,Broken,60.0,40.0,80.0,5.0
76.15429226099513,3236,289.37469482421875,328.1886901855469,-0.0011121368734166026,-5.847843647003174,-0.012116755358874798,-0.0602722130715847,5.74843692779541,-0.5196831226348877,-0.00011451720638433471,5.771879908132849,20.778767669278256,0.44677266478538513,0.03574785590171814,0.0,False,1,0.0,,Broken,60.0,40.0,80.0,5.0
76.18743635877036,3237,289.5652770996094,328.171875,-0.001114807091653347,-5.693149566650391,-0.0101974718272686,-0.0580444373190403,5.751326084136963,-0.5078737735748291,-0.00017785071395337582,5.773706567499792,20.78534364299925,0.44637173414230347,0.033845312893390656,0.0,False,1,0.0,,Broken,60.0,40.0,80.0,5.0
76.21896257787012,3238,289.7468566894531,328.15655517578125,-0.0011160660069435835,-5.540653228759766,-0.00777958519756794,-0.0599365271627903,5.762909889221191,-0.4868775010108948,-9.249210415873677e-05,5.7834401614289055,20.82038458114406,0.4441720247268677,0.04271364212036133,0.0,False,1,0.0,,Broken,60.0,40.0,80.0,5.0
76.24998497939669,3239,289.9259033203125,328.1419982910156,-0.0011129759950563312,-5.382328033447266,-0.0048835850320756435,-0.0626220628619194,5.775892734527588,-0.4686087965965271,6.718635631841607e-06,5.794871101677876,20.861535966040353,0.44690802693367004,0.04271364212036133,0.0,False,1,0.0,,Broken,60.0,40.0,80.0,5.0
76.28219543374144,3240,290.11212158203125,328.127685546875,-0.0011078643146902323,-5.203921318054199,-0.00262279249727726,-0.0671691745519638,5.780340671539307,-0.44282397627830505,0.00010376453428762034,5.797277927077974,20.870200537480706,0.4594566524028778,0.05008232593536377,0.0,False,1,0.0,,Broken,60.0,40.0,80.0,5.0
76.31316229118966,3241,290.2912902832031,328.1147155761719,-0.001100463792681694,-5.019961357116699,-0.0009152452694252133,-0.0712890475988388,5.790555477142334,-0.4200957715511322,0.0001760816521709785,5.805774127723448,20.900786859804413,0.44898098707199097,0.05080292373895645,0.0,False,1,0.0,,Broken,60.0,40.0,80.0,5.0
76.34673043875955,3242,290.4856262207031,328.101318359375,-0.0010939025087282062,-4.820405960083008,-0.0002458867966197431,-0.0722045823931694,5.784865379333496,-0.4021129012107849,0.00013707160542253405,5.798824213676428,20.875767169235143,0.454567015171051,0.04580666124820709,0.0,False,1,0.0,,Broken,60.0,40.0,80.0,5.0
76.37981064035557,3243,290.6768798828125,328.0882873535156,-0.0010939406929537654,-4.645937919616699,-0.0007649811450392008,-0.0664977878332138,5.779885768890381,-0.39810100197792053,-6.369590846588835e-05,5.793579542325672,20.85688635237242,0.4603867530822754,0.031424760818481445,0.0,False,1,0.0,,Broken,60.0,40.0,80.0,5.0
76.41268003522418,3244,290.8667907714844,328.074951171875,-0.0011030578752979636,-4.51840353012085,-0.0012840754352509975,-0.053863514214754105,5.7762908935546875,-0.40845245122909546,-0.00039593694964423776,5.79071412251062,20.846570841038233,0.464755654335022,0.012771816924214363,0.0,False,1,0.0,,Broken,60.0,40.0,80.0,5.0
76.44548064633273,3245,291.0562438964844,328.0615539550781,-0.0011208724463358521,-4.4269118309021,-0.0015299622900784016,-0.0432128943502903,5.774726390838623,-0.41050469875335693,-0.0005862712860107422,5.789298691591294,20.84147528972866,0.48015692830085754,0.012771816924214363,0.0,False,1,0.0,,Broken,60.0,40.0,80.0,5.0
76.47796176909469,3246,291.24383544921875,328.0481262207031,-0.0011402892414480448,-4.362428188323975,-0.0013455471489578485,-0.034210205078125,5.776012420654297,-0.41521453857421875,-0.0006081294850446284,5.790917281952625,20.84730221502945,0.465424120426178,0.006940221413969994,0.0,False,1,0.0,,Broken,60.0,40.0,80.0,5.0
76.51497587724589,3247,291.4571838378906,328.03265380859375,-0.0011648940853774548,-4.314943313598633,-0.002930151065811515,-0.02548217587172985,5.752730369567871,-0.4175804555416107,-0.0005919265677221119,5.767866199226183,20.764318317214258,0.4685872495174408,0.0039016418159008026,0.0,False,1,0.0,,Broken,60.0,40.0,80.0,5.0
76.55180581077002,3248,291.66845703125,328.017333984375,-0.0011883926345035434,-4.281983852386475,-0.0061949812807142735,-0.01983642391860485,5.729702472686768,-0.4169306457042694,-0.000476007437100634,5.7448517661836425,20.681466358261112,0.4685872495174408,0.0039016418159008026,0.0,False,1,0.0,,Broken,60.0,40.0,80.0,5.0
76.58519254042767,3249,291.85980224609375,328.00408935546875,-0.0011993407970294356,-4.223726272583008,-0.007267320994287729,-0.02636718936264515,5.73268461227417,-0.3897228240966797,-0.00012006759061478078,5.745916528965868,20.685299504277125,0.47416257858276367,0.030618151649832726,0.0,False,1,0.0,,Broken,60.0,40.0,80.0,5.0
76.61627148999833,3250,292.038330078125,327.99249267578125,-0.0011940383119508624,-4.137818336486816,-0.005491471849381924,-0.0341491661965847,5.7516655921936035,-0.37139666080474854,0.0002039575483649969,5.76364403877264,20.749118539581506,0.4762432277202606,0.030618151649832726,0.0,False,1,0.0,,Broken,60.0,40.0,80.0,5.0
76.65037154196762,3251,292.23455810546875,327.98004150390625,-0.0011827468406409025,-4.042542457580566,-0.0032989811152219772,-0.0350952111184597,5.752016544342041,-0.3672879636287689,0.0002196598070440814,5.763730981132061,20.74943153207542,0.4816836416721344,0.018844319507479668,0.0,False,1,0.0,,Broken,60.0,40.0,80.0,5.0
76.69869647338055,3252,292.5116271972656,327.9627685546875,-0.0011797331972047687,-3.9159555435180664,-0.005341207608580589,-0.03265380859375,5.7190141677856445,-0.3562922179698944,5.8336256188340485e-05,5.730101848948407,20.628366656214265,0.4816836416721344,0.018844319507479668,0.0,False,1,0.0,,Broken,60.0,40.0,80.0,5.0
76.7348734268453,3253,292.71826171875,327.9501037597656,-0.0011822128435596824,-3.8305675983428955,-0.007390264421701431,-0.030883781611919403,5.709043025970459,-0.34947913885116577,-1.5211105164780747e-05,5.719729708745463,20.59102695148367,0.49225103855133057,0.017179062590003014,0.0,False,1,0.0,,Broken,60.0,40.0,80.0,5.0
76.77751840068959,3254,292.96185302734375,327.934326171875,-0.001189651433378458,-3.7958688735961914,-0.006591132376343012,-0.015045165084302425,5.715939044952393,-0.37774521112442017,-0.0003852748777717352,5.728407349218056,20.622266457185003,0.4953654706478119,-0.011824578046798706,0.0,False,1,0.0,,Broken,60.0,40.0,80.0,5.0
76.8322453291621,3255,293.27447509765625,327.91400146484375,-0.0012093734694644809,-3.7714240550994873,-0.005375358741730452,-0.011749266646802425,5.708407878875732,-0.3668730556964874,-0.0002684307110030204,5.720184998989251,20.592665996361305,0.4955998659133911,0.0068622250109910965,0.0,False,1,0.0,,Broken,60.0,40.0,80.0,5.0
76.86475219368003,3256,293.46051025390625,327.9021911621094,-0.001211624126881361,-3.7485361099243164,-0.0030257736798375845,-0.01223754696547985,5.731949329376221,-0.36437633633613586,-0.00011961936979787424,5.743519238526763,20.676669258696347,0.49232879281044006,0.0068622250109910965,0.0,False,1,0.0,,Broken,60.0,40.0,80.0,5.0
76.90714369504713,3257,293.7039489746094,327.8857727050781,-0.0012154006399214268,-3.765717029571533,0.0011543019209057093,0.0006281602545641363,5.747260093688965,-0.3940368890762329,-0.00033701895154081285,5.760752014107563,20.73870725078723,0.4921189546585083,-0.018978621810674667,0.0,False,1,0.0,,Broken,60.0,40.0,80.0,5.0
76.94500140636228,3258,293.92132568359375,327.8703308105469,-0.0012203216319903731,-3.8224501609802246,0.001857811352238059,0.010549972765147686,5.735519886016846,-0.40792277455329895,8.420944141107611e-06,5.750007769817782,20.700027971344017,0.4947785437107086,-0.018978621810674667,0.0,False,1,0.0,,Broken,60.0,40.0,80.0,5.0
76.97896042256616,3259,294.11639404296875,327.85662841796875,-0.001216888427734375,-3.8623363971710205,0.002513509476557374,0.008541318587958813,5.7508416175842285,-0.40005508065223694,4.727363557321951e-05,5.764739662840747,20.75306278622669,0.494642436504364,3.001466393470764e-05,0.0,False,1,0.0,,Broken,60.0,40.0,80.0,5.0
77.01333361654542,3260,294.3143615722656,327.84332275390625,-0.0012170028639957309,-3.8663039207458496,0.004337169695645571,0.0002876257640309632,5.764928340911865,-0.38522687554359436,-0.00015029906353447586,5.777784916737531,20.800025700255112,0.49313879013061523,0.011066859588027,0.0,False,1,0.0,,Broken,60.0,40.0,80.0,5.0
77.04592496692203,3261,294.50274658203125,327.8312683105469,-0.0012150955153629184,-3.8340461254119873,0.006959962192922831,-0.009521483443677425,5.790179252624512,-0.3678015172481537,9.973048872780055e-05,5.8018491658745805,20.886656997148492,0.49040067195892334,0.019892392680048943,0.0,False,1,0.0,,Broken,60.0,40.0,80.0,5.0
77.07758342265151,3262,294.6866455078125,327.81951904296875,-0.001204643165692687,-3.8022470474243164,0.010586792603135109,-0.010192870162427425,5.8195390701293945,-0.3750894069671631,0.00016700744163244963,5.831614448836014,20.99381201580965,0.4931071102619171,0.00208854116499424,0.0,False,1,0.0,,Broken,60.0,40.0,80.0,5.0
77.11703336029314,3263,294.9160461425781,327.8046875,-0.001201362581923604,-3.7758798599243164,0.010989774018526077,-0.007537842262536287,5.803619861602783,-0.3758420944213867,2.079009937006049e-05,5.81577688519441,20.936796786699876,0.49000924825668335,0.00208854116499424,0.0,False,1,0.0,,Broken,60.0,40.0,80.0,5.0
