time_stamp,frame,x,y,z,yaw,pitch,roll,vx,vy,vz,speed_mps,speed_kmh,throttle,steer,brake,reverse,gear,collision_impulse,collision_with,lane_invasion,weather_cloud,weather_rain,weather_wetness,weather_fog
30.374330196995288,1415,263.4009094238281,331.0002746582031,-0.0012302779359743,0.011090818792581558,0.07553505897521973,-0.0019531248835846782,1.7073712348937988,0.004812826868146658,-0.0009591293055564165,1.707378287601861,6.1465618353666995,0.5112110376358032,0.005916457623243332,0.0,False,1,0.0,,,60.0,40.0,80.0,5.0
30.404037340078503,1416,263.4533386230469,331.00042724609375,-0.00127410888671875,0.01840723119676113,0.07444905489683151,-0.0021972653921693563,1.7944501638412476,0.005594276823103428,-0.001210126793012023,1.7944592920570555,6.4600534514053995,0.5120084285736084,0.005916457623243332,0.0,False,1,0.0,,,60.0,40.0,80.0,5.0
30.43303394736722,1417,263.5050964355469,331.00067138671875,-0.0012966155773028731,0.027709905058145523,0.07050804048776627,-0.0026855471078306437,1.7844151258468628,0.007335206493735313,-0.00047406196244992316,1.7844302651939428,6.4239489546981945,0.5127582550048828,0.008285187184810638,0.0,False,1,0.0,,,60.0,40.0,80.0,5.0
30.463859964627773,1418,263.5619201660156,331.0008239746094,-0.0012503050966188312,0.03796308487653732,0.06919664144515991,-0.0026245114859193563,1.8514552116394043,0.007162333466112614,0.0012750434689223766,1.851469504329801,6.665290215587284,0.511487603187561,0.006386570632457733,0.0,False,1,0.0,,,60.0,40.0,80.0,5.0
30.493324714247137,1419,263.6169128417969,331.0010986328125,-0.0012882995652034879,0.04589012265205383,0.06543321162462234,-0.0022583005484193563,1.8753135204315186,0.006928607821464539,-0.0009434318053536117,1.8753265570516433,6.751175605385916,0.5114709734916687,0.005605082958936691,0.0,False,1,0.0,,,60.0,40.0,80.0,5.0
30.52510085934773,1420,263.6765441894531,331.00152587890625,-0.0012580871116369963,0.0758267343044281,0.06005784869194031,-0.004333495628088713,1.8991397619247437,0.01429020892828703,0.00097952364012599,1.8991937775965222,6.83709759934748,0.5108722448348999,0.015990301966667175,0.0,False,1,0.0,,,60.0,40.0,80.0,5.0
30.5530690071173,1421,263.7293701171875,331.00189208984375,-0.0012817763490602374,0.10928041487932205,0.05438196286559105,-0.00506591796875,1.8850740194320679,0.014031711965799332,-0.00048232078552246094,1.8851263035435593,6.786454692756814,0.5092102289199829,0.012151375412940979,0.0,False,1,0.0,,,60.0,40.0,80.0,5.0
30.584450718481094,1422,263.7897644042969,331.0024108886719,-0.0012536239810287952,0.13867060840129852,0.05117177590727806,-0.004974364768713713,1.930918574333191,0.01433017197996378,0.0008233261178247631,1.930971924290924,6.951498927447327,0.5155436992645264,0.01033814623951912,0.0,False,1,0.0,,,60.0,40.0,80.0,5.0
30.61551225418225,1423,263.850830078125,331.0029296875,-0.0012348938034847379,0.16675910353660583,0.050044793635606766,-0.005371092818677425,1.9741718769073486,0.01708851382136345,0.0005155086400918663,1.9742459022689307,7.107285248168151,0.505934476852417,0.012911096215248108,0.0,False,1,0.0,,,60.0,40.0,80.0,5.0
30.646610126364976,1424,263.9132995605469,331.00341796875,-0.0012248229468241334,0.19113388657569885,0.049894530326128006,-0.004669188987463713,2.0164430141448975,0.015734735876321793,0.00022863864433020353,2.016504416926104,7.259415900933975,0.5052126049995422,0.008408639580011368,0.0,False,1,0.0,,,60.0,40.0,80.0,5.0
30.674599037040025,1425,263.97039794921875,331.00390625,-0.0012639999622479081,0.20858368277549744,0.04915686696767807,-0.004089354537427425,2.0545032024383545,0.01627008058130741,-0.001172466203570366,2.05456795921395,7.396444653170221,0.5044468641281128,0.008408639580011368,0.0,False,1,0.0,,,60.0,40.0,80.0,5.0
30.704548871610314,1426,264.0316467285156,331.00439453125,-0.0013161086244508624,0.24092377722263336,0.045407094061374664,-0.003570556640625,2.039585828781128,0.01601777970790863,-0.0013237762032076716,2.0396491547849616,7.342736957225862,0.5142409205436707,0.007788281887769699,0.0,False,1,0.0,,,60.0,40.0,80.0,5.0
30.733891459647566,1427,264.09246826171875,331.00494384765625,-0.001338958740234375,0.2647247016429901,0.04358343407511711,-0.003936766646802425,2.0906381607055664,0.018941327929496765,-0.0005707931122742593,2.090724041739336,7.526606550261609,0.505870521068573,0.010124843567609787,0.0,False,1,0.0,,,60.0,40.0,80.0,5.0
30.764480621088296,1428,264.1572265625,331.0055847167969,-0.001287002582103014,0.28875309228897095,0.04432109370827675,-0.0035400392953306437,2.145516872406006,0.018071455880999565,0.0013685941230505705,2.145593414500143,7.724136292200515,0.5090723633766174,0.006270945072174072,0.0,False,1,0.0,,,60.0,40.0,80.0,5.0
30.794149801600724,1429,264.2209167480469,331.0060729980469,-0.0013229751493781805,0.31315791606903076,0.04351513460278511,-0.0025939939077943563,2.143739938735962,0.016608888283371925,-0.0009915924165397882,2.1438045067956164,7.717696224464219,0.5078270435333252,0.004076778888702393,0.0,False,1,0.0,,,60.0,40.0,80.0,5.0
30.826394219417125,1430,264.2915344238281,331.0067138671875,-0.0012861633440479636,0.33414149284362793,0.04466943442821503,-0.002471923828125,2.2017102241516113,0.018384581431746483,0.0008844327530823648,2.2017871573313927,7.926433766393014,0.5062873363494873,0.005717087537050247,0.0,False,1,0.0,,,60.0,40.0,80.0,5.0
30.85602216096595,1431,264.3575134277344,331.00726318359375,-0.0013197708176448941,0.34597596526145935,0.045147549360990524,-0.001922607421875,2.24245548248291,0.01746332459151745,-0.0009730911115184426,2.2425236911858395,8.073085288269022,0.5047510266304016,0.0027262046933174133,0.0,False,1,0.0,,,60.0,40.0,80.0,5.0
30.890711196232587,1432,264.4358825683594,331.00787353515625,-0.0013016510056331754,0.3630131185054779,0.045304641127586365,-0.0008850098238326609,2.2849957942962646,0.0160046573728323,0.00041484832763671875,2.285051881491616,8.226186773369818,0.5046535730361938,0.0005628503859043121,0.0,False,1,0.0,,,60.0,40.0,80.0,5.0
30.92107259342447,1433,264.5060729980469,331.00836181640625,-0.0012612533755600452,0.3731354773044586,0.04706000164151192,-0.000640869140625,2.336422920227051,0.016882294788956642,0.001020407653413713,2.3364841354632433,8.411342887667676,0.5013006329536438,0.001551203429698944,0.0,False,1,0.0,,,60.0,40.0,80.0,5.0
30.95171709964052,1434,264.5784606933594,331.0088195800781,-0.0012385176960378885,0.37649643421173096,0.04922517016530037,0.00043109964462928474,2.383944272994995,0.01410222053527832,0.0005058479146100581,2.383986037134399,8.582349733683836,0.5012325644493103,-0.0026802048087120056,0.0,False,1,0.0,,,60.0,40.0,80.0,5.0
30.980730247218162,1435,264.64764404296875,331.0091857910156,-0.0012852477375417948,0.38487306237220764,0.04839188605546951,0.0011043061967939138,2.3825769424438477,0.013358117081224918,-0.0013283919543027878,2.382614759163179,8.577413132987445,0.5015012621879578,-0.0026802048087120056,0.0,False,1,0.0,,,60.0,40.0,80.0,5.0
31.010988804046065,1436,264.7210388183594,331.0096740722656,-0.0012537384172901511,0.3916144073009491,0.04893830418586731,0.0003834246890619397,2.438514232635498,0.01650456339120865,0.0008083104621618986,2.438570219769041,8.778852791168548,0.5056912899017334,0.0010783188045024872,0.0,False,1,0.0,,,60.0,40.0,80.0,5.0
31.042473068926483,1437,264.7987976074219,331.0101623535156,-0.0012429427588358521,0.39268264174461365,0.04988769814372063,0.0008234981796704233,2.4809999465942383,0.014085697010159492,0.00023980617697816342,2.4810399431222137,8.931743795239969,0.501285970211029,-0.0033367518335580826,0.0,False,1,0.0,,,60.0,40.0,80.0,5.0
31.07289545284584,1438,264.8752746582031,331.0105895996094,-0.0012307357974350452,0.3907102644443512,0.05078928545117378,0.0012826550519093871,2.525144100189209,0.013554657809436321,0.0002751302672550082,2.5251804947697036,9.090649781170933,0.501285970211029,-0.0033367518335580826,0.0,False,1,0.0,,,60.0,40.0,80.0,5.0
31.104481600690633,1439,264.9559631347656,331.01104736328125,-0.0012323379050940275,0.3885030150413513,0.05125373601913452,0.001265642000362277,2.5634427070617676,0.01401004008948803,-8.388042624574155e-05,2.5634809928391116,9.228531574220803,0.5025371313095093,-0.002615366131067276,0.0,False,1,0.0,,,60.0,40.0,80.0,5.0
31.136543713975698,1440,265.0390625,331.0115051269531,-0.0012386321322992444,0.38517317175865173,0.05113762244582176,0.001566421240568161,2.600994110107422,0.012986102141439915,-0.00016452788258902729,2.6010265332617717,9.363695519742379,0.5043429136276245,-0.003998219966888428,0.0,False,1,0.0,,,60.0,40.0,80.0,5.0
31.171105411369354,1441,265.1298522949219,331.0119934082031,-0.0012637329054996371,0.3820329010486603,0.050044793635606766,0.001657622866332531,2.6321969032287598,0.012839216738939285,-0.0005634689005091786,2.632228276641436,9.476021795909169,0.5023797750473022,-0.003766292706131935,0.0,False,1,0.0,,,60.0,40.0,80.0,5.0
31.199598139617592,1442,265.2054748535156,331.01226806640625,-0.0013019179459661245,0.37301233410835266,0.04865143448114395,0.0026820660568773746,2.667712450027466,0.009470186196267605,-0.0010680865962058306,2.667729473028911,9.60382610290408,0.5019364356994629,-0.00784945860505104,0.0,False,1,0.0,,,60.0,40.0,80.0,5.0
31.231808366719633,1443,265.29205322265625,331.012451171875,-0.0012813567882403731,0.3614741563796997,0.047824982553720474,0.004204959608614445,2.7095818519592285,0.0059486567042768,0.0005774783785454929,2.7095884433737654,9.754518396145556,0.5015581846237183,-0.009997949004173279,0.0,False,1,0.0,,,60.0,40.0,80.0,5.0
31.260271842125803,1444,265.3694152832031,331.012451171875,-0.0013095473404973745,0.3474198877811432,0.0465204156935215,0.006336251273751259,2.7196991443634033,0.00021945858316030353,-0.000746660225559026,2.7196992557109305,9.79091732055935,0.5036118626594543,-0.01548779383301735,0.0,False,1,0.0,,,60.0,40.0,80.0,5.0
31.2921694801189,1445,265.4574279785156,331.0126037597656,-0.0012799071846529841,0.33472296595573425,0.0468619242310524,0.004795469343662262,2.7740960121154785,0.006713216658681631,0.0007258033729158342,2.774104229927824,9.986775227740166,0.5088722705841064,-0.004867551848292351,0.0,False,1,0.0,,,60.0,40.0,80.0,5.0
31.321654968429357,1446,265.5399169921875,331.0126037597656,-0.0013173293555155396,0.3126465976238251,0.0469643771648407,0.005881968419998884,2.8109636306762695,-0.0004183929704595357,-0.0010440063197165728,2.810963855688399,10.119469880478237,0.5053449869155884,-0.014710158109664917,0.0,False,1,0.0,,,60.0,40.0,80.0,5.0
31.35237273434177,1447,265.6270751953125,331.0124816894531,-0.0012741469545289874,0.28943803906440735,0.047947924584150314,0.007097442634403706,2.860447883605957,-0.0034104555379599333,0.0011461019748821855,2.8604501463200704,10.297620526752254,0.5047672986984253,-0.014281412586569786,0.0,False,1,0.0,,,60.0,40.0,80.0,5.0
31.38130746083334,1448,265.7102966308594,331.01226806640625,-0.0013029861729592085,0.2640073895454407,0.04810502007603645,0.00891395378857851,2.8782691955566406,-0.00910829845815897,-0.0008213233668357134,2.878283724333504,10.361821407600615,0.5032458305358887,-0.01909254863858223,0.0,False,1,0.0,,,60.0,40.0,80.0,5.0
31.412830196786672,1449,265.80230712890625,331.01190185546875,-0.001265678321942687,0.23359321057796478,0.04945739731192589,0.0088488245382905,2.9376637935638428,-0.008338835090398788,0.0009187554824166,2.937675772493998,10.575632780978394,0.5034492015838623,-0.014262991026043892,0.0,False,1,0.0,,,60.0,40.0,80.0,5.0
31.442823432851583,1450,265.8911437988281,331.011474609375,-0.0013070678105577826,0.19716741144657135,0.050140414386987686,0.009470753371715546,2.976202964782715,-0.012902222573757172,-0.0011656475253403187,2.976231159312549,10.714432173525175,0.5039381384849548,-0.01815088838338852,0.0,False,1,0.0,,,60.0,40.0,80.0,5.0
31.474213287699968,1451,265.9854431152344,331.0109558105469,-0.0012646483955904841,0.16177062690258026,0.05130154639482498,0.01007001381367445,3.0278265476226807,-0.016032889485359192,0.0010799217270687222,3.0278691884334874,10.900329078360555,0.5040439367294312,-0.01815088838338852,0.0,False,1,0.0,,,60.0,40.0,80.0,5.0
31.502430556807667,1452,266.07147216796875,331.01068115234375,-0.0012844466837123036,0.14279542863368988,0.05205969884991646,0.007073314394801855,3.0553481578826904,-0.007997420616447926,-0.0006587982061319053,3.0553586955754874,10.999291304071756,0.5037388801574707,-0.007086874917149544,0.0,False,1,0.0,,,60.0,40.0,80.0,5.0
31.53166181454435,1453,266.16168212890625,331.0105285644531,-0.0013100814539939165,0.12640734016895294,0.052435360848903656,0.003880593227222562,3.1010472774505615,-0.004390334244817495,-0.0007753562531434,3.1010504822068987,11.163781735944836,0.5071672797203064,-0.005575956776738167,0.0,False,1,0.0,,,60.0,40.0,80.0,5.0
31.562957795802504,1454,266.259765625,331.0103759765625,-0.0012687301496043801,0.11429006606340408,0.05375358462333679,0.0021483299788087606,3.15683650970459,-0.0041183605790138245,0.0010199308162555099,3.156839360841249,11.364621699028497,0.5043663382530212,-0.006543055176734924,0.0,False,1,0.0,,,60.0,40.0,80.0,5.0
31.594902826938778,1455,266.3617858886719,331.0103454589844,-0.0012475585099309683,0.10420108586549759,0.05613049119710922,0.00033938014530576766,3.2150685787200928,-0.0007332530221901834,0.00042196750291623175,3.2150686900266696,11.57424728409601,0.5025112628936768,-0.0031005144119262695,0.0,False,1,0.0,,,60.0,40.0,80.0,5.0
31.62241161102429,1456,266.450927734375,331.0103454589844,-0.0012687301496043801,0.10259934514760971,0.0574692077934742,-0.0012512205867096782,3.25083589553833,0.0021285281982272863,-0.0006989478715695441,3.250836667518212,11.703012003065563,0.5013223886489868,-0.0009907670319080353,0.0,False,1,0.0,,,60.0,40.0,80.0,5.0
31.655831763986498,1457,266.5608215332031,331.010498046875,-0.0012574767461046576,0.09996376186609268,0.05883524566888809,-0.0022888185922056437,3.3087542057037354,0.0033734648022800684,0.00022710800112690777,3.308755933217948,11.911521359584613,0.5011731386184692,-0.0009907670319080353,0.0,False,1,0.0,,,60.0,40.0,80.0,5.0
31.68522190162912,1458,266.65875244140625,331.0108642578125,-0.0012937927385792136,0.10338427126407623,0.05888305604457855,-0.005279541015625,3.3423564434051514,0.012445513159036636,-0.000998430186882615,3.3423797633471515,12.032567148049745,0.5002341270446777,0.008028190582990646,0.0,False,1,0.0,,,60.0,40.0,80.0,5.0
31.715398326981813,1459,266.76068115234375,331.0111999511719,-0.0012488174252212048,0.11306370049715042,0.05953875556588173,-0.005859375465661287,3.4002599716186523,0.011070163920521736,0.0012080860324203968,3.40027820664621,12.241001543926357,0.5015426278114319,0.002347845584154129,0.0,False,1,0.0,,,60.0,40.0,80.0,5.0
31.74430260108784,1460,266.85986328125,331.0116271972656,-0.0012789916945621371,0.12975354492664337,0.060467660427093506,-0.007232665549963713,3.444526195526123,0.01683165691792965,-0.0009137153392657638,3.444567440364028,12.400442785310501,0.49971091747283936,0.007985208183526993,0.0,False,1,0.0,,,60.0,40.0,80.0,5.0
31.776960708666593,1461,266.9735412597656,331.0122985839844,-0.0012519073206931353,0.14463156461715698,0.0614580400288105,-0.007385254371911287,3.5026845932006836,0.017302272841334343,0.0006439113640226424,3.5027273862966783,12.609818590668043,0.5008255839347839,0.005292315036058426,0.0,False,1,0.0,,,60.0,40.0,80.0,5.0
31.81013523088768,1462,267.0910339355469,331.01275634765625,-0.0012397002428770065,0.15230834484100342,0.06291969865560532,-0.005187986884266138,3.563004493713379,0.01307088602334261,0.00020972250786144286,3.563028475085022,12.82690251030608,0.5037250518798828,0.000654708594083786,0.0,False,1,0.0,,,60.0,40.0,80.0,5.0
31.84308484615758,1463,267.20965576171875,331.01324462890625,-0.0012324523413553834,0.16004586219787598,0.06442917138338089,-0.00445556640625,3.6232662200927734,0.015440018847584724,0.0001015758462017402,3.6232991190578017,13.043876828608086,0.503753662109375,0.003623679280281067,0.0,False,1,0.0,,,60.0,40.0,80.0,5.0
31.87643524305895,1464,267.331787109375,331.0138854980469,-0.0012310409219935536,0.17443907260894775,0.06591132283210754,-0.00543212890625,3.684657573699951,0.020126355811953545,-8.888244337867945e-06,3.6847125404435124,13.264965145596644,0.5041892528533936,0.006519578397274017,0.0,False,1,0.0,,,60.0,40.0,80.0,5.0
31.906476568896323,1465,267.4435729980469,331.0145263671875,-0.0012084960471838713,0.19005168974399567,0.06720222532749176,-0.006072997581213713,3.7410435676574707,0.022269999608397484,0.0005672263796441257,3.7411098954374036,13.467995623574653,0.5036212205886841,0.006353512406349182,0.0,False,1,0.0,,,60.0,40.0,80.0,5.0
31.93691678205505,1466,267.55853271484375,331.01513671875,-0.0011983871227130294,0.20068709552288055,0.06843166053295135,-0.004760741721838713,3.7982914447784424,0.019028041511774063,0.00019449710089247674,3.7983391111997893,13.674020800319242,0.5053321123123169,0.0019686631858348846,0.0,False,1,0.0,,,60.0,40.0,80.0,5.0
31.970232459250838,1467,267.6863708496094,331.0159606933594,-0.0012136077275499701,0.2180352807044983,0.06964060664176941,-0.005737304221838713,3.860858678817749,0.02572290040552616,-0.0004092693270649761,3.8609443887356094,13.899399799448194,0.5062025785446167,0.008005931973457336,0.0,False,1,0.0,,,60.0,40.0,80.0,5.0
32.001787221524864,1468,267.8093566894531,331.01690673828125,-0.0012095641577616334,0.23928989470005035,0.07059682905673981,-0.006835937034338713,3.9199163913726807,0.02900344505906105,6.720543024130166e-05,3.9200236886649145,14.112085279193693,0.5062025785446167,0.008005931973457336,0.0,False,1,0.0,,,60.0,40.0,80.0,5.0
32.03120383480564,1469,267.92572021484375,331.0170593261719,-0.0012657165061682463,0.22345389425754547,0.07127302139997482,0.0021324600093066692,3.974008321762085,0.001569927204400301,-0.0017083740094676614,3.9740089990647336,14.306432396633042,0.5028707385063171,-0.01815415546298027,0.0,False,1,0.0,,,60.0,40.0,80.0,5.0
32.06236676545814,1470,268.0506896972656,331.0167236328125,-0.001237144460901618,0.1820749193429947,0.07175113260746002,0.010755877010524273,4.030871391296387,-0.011262043379247189,0.0008377504418604076,4.030887211101118,14.511193959964025,0.5033289194107056,-0.018237583339214325,0.0,False,1,0.0,,,60.0,40.0,80.0,5.0
32.09191650757566,1471,268.1708679199219,331.0160827636719,-0.0012745666317641735,0.13512469828128815,0.07203800231218338,0.015450505539774895,4.084295749664307,-0.0183881763368845,-0.0010155009804293513,4.084337269006706,14.703614168424144,0.5067541003227234,-0.0180969275534153,0.0,False,1,0.0,,,60.0,40.0,80.0,5.0
32.120686350855976,1472,268.28936767578125,331.0153503417969,-0.0012847137404605746,0.08560683578252792,0.07219509780406952,0.018156100064516068,4.13581657409668,-0.024973681196570396,-0.0002538776316214353,4.1358919816382,14.88921113389752,0.5053664445877075,-0.019138509407639503,0.0,False,1,0.0,,,60.0,40.0,80.0,5.0
32.14794999966398,1473,268.40301513671875,331.0144348144531,-0.0012725830310955644,0.034056406468153,0.07219509780406952,0.02025182545185089,4.184091567993164,-0.03238072991371155,0.00042307854164391756,4.184216884916064,15.063180785697831,0.5063819885253906,-0.02127358876168728,0.0,False,1,0.0,,,60.0,40.0,80.0,5.0
32.17955882335082,1474,268.5363464355469,331.01300048828125,-0.0012258529895916581,-0.036346435546875,0.0720653235912323,0.02355792000889778,4.239350318908691,-0.04471885412931442,0.0012525987112894654,4.2395863561613405,15.262510882180827,0.5067883729934692,-0.02595806121826172,0.0,False,1,0.0,,,60.0,40.0,80.0,5.0
32.2094161962159,1475,268.6639709472656,331.0114440917969,-0.0012570571852847934,-0.1090698316693306,0.07184675335884094,0.02569909580051899,4.291036605834961,-0.05282749608159065,-0.0008402251987718046,4.291361858773535,15.448902691584728,0.5064547061920166,-0.025847867131233215,0.0,False,1,0.0,,,60.0,40.0,80.0,5.0
32.2385281980969,1476,268.7898254394531,331.0096435546875,-0.0012655638856813312,-0.182159423828125,0.07154622673988342,0.026794172823429108,4.340836524963379,-0.059843651950359344,-0.00020583152945619076,4.341249018600697,15.628496466962511,0.5064547061920166,-0.025847867131233215,0.0,False,1,0.0,,,60.0,40.0,80.0,5.0
32.26710793422535,1477,268.9148254394531,331.0079345703125,-0.0012645339593291283,-0.2458800971508026,0.07120471447706223,0.024868391454219818,4.38948392868042,-0.05882071703672409,4.365920904092491e-05,4.389878020948023,15.803560875412884,0.5095988512039185,-0.019306674599647522,0.0,False,1,0.0,,,60.0,40.0,80.0,5.0
32.298364993650466,1478,269.0530700683594,331.00628662109375,-0.0012152481358498335,-0.296234130859375,0.07080856710672379,0.019266486167907715,4.442337989807129,-0.05105553939938545,0.001235747360624373,4.442631541199264,15.993473548317349,0.5094540119171143,-0.01063765212893486,0.0,False,1,0.0,,,60.0,40.0,80.0,5.0
32.32649037102237,1479,269.17889404296875,331.0051574707031,-0.0012361144181340933,-0.317657470703125,0.07039875537157059,0.011483496055006981,4.489227294921875,-0.03841155022382736,-0.0007157993386499584,4.489391680955324,16.161810051439165,0.5061769485473633,-0.0006761997938156128,0.0,False,1,0.0,,,60.0,40.0,80.0,5.0
32.357628878671676,1480,269.3196716308594,331.0040588378906,-0.001210708636790514,-0.3282470405101776,0.06988649070262909,0.005254049319773912,4.540370464324951,-0.0337601937353611,0.0005937099340371788,4.540496014367473,16.345785651722903,0.5082703828811646,-0.0013036131858825684,0.0,False,1,0.0,,,60.0,40.0,80.0,5.0
32.385043072048575,1481,269.4449462890625,331.003662109375,-0.0012376403901726007,-0.309326171875,0.06931958347558975,-0.004364012740552425,4.584232807159424,-0.010825288482010365,-0.0008087348542176187,4.584245659992444,16.5032843759728,0.5013324022293091,0.01715322583913803,0.0,False,1,0.0,,,60.0,40.0,80.0,5.0
32.41861256072298,1482,269.5999450683594,331.003662109375,-0.0012290191370993853,-0.2654114067554474,0.0684863030910492,-0.012908935546875,4.63686990737915,0.0005089450278319418,0.0003160095075145364,4.63686994607843,16.692731805882346,0.5013900995254517,0.014995560050010681,0.0,False,1,0.0,,,60.0,40.0,80.0,5.0
32.451320505235344,1483,269.75262451171875,331.0037536621094,-0.0012152481358498335,-0.2281188815832138,0.06763935834169388,-0.014221190474927425,4.687495231628418,-0.0013533555902540684,0.00036064148298464715,4.687495440869547,16.87498358713037,0.508838415145874,0.007979266345500946,0.0,False,1,0.0,,,60.0,40.0,80.0,5.0
32.481331980321556,1484,269.8941650390625,331.0037841796875,-0.0011919784592464566,-0.1995239108800888,0.06686754524707794,-0.013519287109375,4.73366641998291,-0.00024315431073773652,0.0006257295608520508,4.733666467584649,17.041199283304735,0.508838415145874,0.007979266345500946,0.0,False,1,0.0,,,60.0,40.0,80.0,5.0
32.510601696092635,1485,270.0335998535156,331.0037841796875,-0.0012439346173778176,-0.1773376166820526,0.06614354997873306,-0.011688232421875,4.778464317321777,-0.0018109158845618367,-0.0014965056907385588,4.7784648948028385,17.20247362129022,0.5113790035247803,0.005309406667947769,0.0,False,1,0.0,,,60.0,40.0,80.0,5.0
32.54058288084343,1486,270.1777648925781,331.0037841796875,-0.0012859725393354893,-0.157989501953125,0.0654468685388565,-0.01007079891860485,4.824130058288574,-0.0015905436594039202,-0.0011566734174266458,4.824130459161096,17.366869652979947,0.5113790035247803,0.005309406667947769,0.0,False,1,0.0,,,60.0,40.0,80.0,5.0
32.572647121269256,1487,270.33343505859375,331.00390625,-0.0012503050966188312,-0.1317748874425888,0.06473653018474579,-0.01058959774672985,4.8721923828125,0.004582865629345179,0.0009422731236554682,4.872194629288957,17.539900665440246,0.50540691614151,0.009255658835172653,0.0,False,1,0.0,,,60.0,40.0,80.0,5.0
32.60422069998458,1488,270.4881591796875,331.0044860839844,-0.0012244414538145065,-0.0881042405962944,0.06397154927253723,-0.01483154110610485,4.918323993682861,0.019200384616851807,0.0007378100999630988,4.91836152656245,17.706101495624818,0.505988597869873,0.01746227592229843,0.0,False,1,0.0,,,60.0,40.0,80.0,5.0
32.63605217682198,1489,270.6456298828125,331.00518798828125,-0.0012093352852389216,-0.0426025390625,0.06317241489887238,-0.01593017578125,4.96419620513916,0.019910544157028198,0.00040690897731110454,4.964236150553435,17.871250141992366,0.5054527521133423,0.011121150106191635,0.0,False,1,0.0,,,60.0,40.0,80.0,5.0
32.670214109588414,1490,270.8162536621094,331.00555419921875,-0.0011783599620684981,-0.01928711123764515,0.06225034222006798,-0.009887696243822575,5.0125274658203125,0.006872664671391249,0.004708089865744114,5.012534388433946,18.045123798362205,0.5058264136314392,-0.0002589672803878784,0.0,False,1,0.0,,,60.0,40.0,80.0,5.0
32.704800066072494,1491,270.9906311035156,331.00543212890625,-0.0010782623430714011,-0.02365112118422985,0.06126679480075836,-0.0013122559757903218,5.060507297515869,-0.005420673172920942,0.0020308494567871094,5.0605106082547175,18.217838189716982,0.5053810477256775,-0.00548197329044342,0.0,False,1,0.0,,,60.0,40.0,80.0,5.0
32.73380002984777,1492,271.1379089355469,331.0050964355469,-0.0010446548694744706,-0.059478759765625,0.05936117097735405,0.0030190940015017986,5.080689430236816,-0.009748507291078568,0.0009486388880759478,5.080698871201703,18.29051593632613,0.5042127966880798,-0.00548197329044342,0.0,False,1,0.0,,,60.0,40.0,80.0,5.0
32.76581410551444,1493,271.29931640625,331.0047912597656,-0.0010430144611746073,-0.0671081468462944,0.04869241639971733,0.0038030948489904404,5.025731563568115,-0.009401945397257805,0.0002770757710095495,5.025740365597198,18.092665316149912,0.5047739744186401,-0.0016834065318107605,0.0,False,1,0.0,,,60.0,40.0,80.0,5.0
32.79774162778631,1494,271.4590759277344,331.0048828125,-0.0010914993472397327,-0.0320434495806694,0.0366986058652401,-0.0009460448054596782,5.0153021812438965,0.0037260621320456266,-0.004167747218161821,5.015305297072719,18.05509906946179,0.5045105814933777,0.011970426887273788,0.0,False,1,0.0,,,60.0,40.0,80.0,5.0
32.827712471131235,1495,271.611083984375,331.00537109375,-0.001084136893041432,0.00022727962641511112,0.03677373751997948,-0.00885009579360485,5.099005222320557,0.01777314953505993,0.00021801948605570942,5.099036202031635,18.356530327313887,0.5051797032356262,0.01309598982334137,0.0,False,1,0.0,,,60.0,40.0,80.0,5.0
32.86165192956105,1496,271.7844543457031,331.0061950683594,-0.0010804366320371628,0.04605919122695923,0.03660981357097626,-0.011901854537427425,5.092945575714111,0.021464036777615547,4.3668744183378294e-05,5.092990805407731,18.334766899467834,0.5058673024177551,0.010269377380609512,0.0,False,1,0.0,,,60.0,40.0,80.0,5.0
32.889860790688545,1497,271.9272155761719,331.00689697265625,-0.0010929107666015625,0.0744636282324791,0.02848871797323227,-0.012298583053052425,5.047664642333984,0.02396891824901104,-0.00013137816858943552,5.047721552123385,18.17179758764419,0.5056453943252563,0.010269377380609512,0.0,False,1,0.0,,,60.0,40.0,80.0,5.0
32.91898589814082,1498,272.0732421875,331.0074462890625,-0.0011135482927784324,0.10065345466136932,0.017512604594230652,-0.009124755859375,5.001277446746826,0.01777254231274128,-0.0002785873366519809,5.0013090326643095,18.004712517591514,0.5043192505836487,-0.0013031773269176483,0.0,False,1,0.0,,,60.0,40.0,80.0,5.0
32.94767502741888,1499,272.2174072265625,331.00775146484375,-0.0011736678425222635,0.09877768903970718,0.014425358735024929,-0.0033264157827943563,5.066375732421875,0.006267074029892683,0.0005193137913011014,5.066379635200762,18.238966686722744,0.5087682008743286,-0.007671911269426346,0.0,False,1,0.0,,,60.0,40.0,80.0,5.0
32.975966178346425,1500,272.3627624511719,331.0077209472656,-0.0011565398890525103,0.0986156165599823,0.02355732023715973,0.0026207296177744865,5.162571907043457,-0.001511640497483313,8.61358639667742e-05,5.162572129071971,18.585259664659095,0.5066461563110352,-0.007671911269426346,0.0,False,1,0.0,,,60.0,40.0,80.0,5.0
33.00714548910037,1501,272.5231628417969,331.0076904296875,-0.0011517333332449198,0.07596932351589203,0.02594105713069439,0.003239466343075037,5.139529228210449,0.0006827390170656145,1.5125274330785032e-05,5.139529273580494,18.502305384889777,0.5022614002227783,-0.001946713775396347,0.0,False,1,0.0,,,60.0,40.0,80.0,5.0
33.036740970332175,1502,272.6745910644531,331.00823974609375,-0.0011602019658312201,0.043449517339468,0.021262377500534058,-0.005004882346838713,5.103120803833008,0.022831225767731667,-0.00010859488975256681,5.103171877879105,18.37141876036478,0.5013858675956726,0.02597026899456978,0.0,False,1,0.0,,,60.0,40.0,80.0,5.0
33.066698423121125,1503,272.8265075683594,331.009521484375,-0.0011690139072015882,0.13724443316459656,0.012581207789480686,-0.015350340865552425,5.060043811798096,0.042309630662202835,0.00018385886505711824,5.0602206983457805,18.21679451404481,0.499244749546051,0.035577818751335144,0.0,False,1,0.0,,,60.0,40.0,80.0,5.0
33.09521379182115,1504,272.9700927734375,331.0107421875,-0.0011730956612154841,0.1540241539478302,0.004528415389358997,-0.01678466796875,5.028581142425537,0.04072439670562744,0.00017290115647483617,5.028746047708073,18.103485771749064,0.49986201524734497,0.01019415631890297,0.0,False,1,0.0,,,60.0,40.0,80.0,5.0
33.12460191594437,1505,273.1171875,331.0122985839844,-0.0011789703276008368,0.2521778643131256,-0.002684264210984111,-0.01922607235610485,4.997040271759033,0.05130938068032265,0.00011680602619890124,4.997303687366922,17.99029327452092,0.5034573078155518,0.024882353842258453,0.0,False,1,0.0,,,60.0,40.0,80.0,5.0
33.15295377233997,1506,273.2618713378906,331.0140686035156,-0.0011994170490652323,0.31709057092666626,0.0065979622304439545,-0.022613525390625,5.154512405395508,0.06349382549524307,0.0009138584136962891,5.154903533373773,18.557652720145583,0.5015265941619873,0.020058587193489075,0.0,False,1,0.0,,,60.0,40.0,80.0,5.0
33.182998057920486,1507,273.4194030761719,331.0158386230469,-0.0011564636370167136,0.37306344509124756,0.024800416082143784,-0.01977538876235485,5.278590679168701,0.05786984786391258,0.0004742145538330078,5.278907908116785,19.004068469220424,0.5053125619888306,0.007654979825019836,0.0,False,1,0.0,,,60.0,40.0,80.0,5.0
33.211539956275374,1508,273.5697326660156,331.0170593261719,-0.0011412048479542136,0.38805532455444336,0.032306794077157974,-0.00979614071547985,5.261274337768555,0.040092192590236664,1.0051727258542087e-05,5.26142709169952,18.941137530118272,0.505226731300354,-0.014641780406236649,0.0,False,1,0.0,,,60.0,40.0,80.0,5.0
33.24129116209224,1509,273.72515869140625,331.0177307128906,-0.0011546325404196978,0.36691850423812866,0.027751056477427483,0.001137982471846044,5.201119422912598,0.02160230278968811,-0.00035702704917639494,5.20116429641987,18.724191467111535,0.5016629695892334,-0.01903396099805832,0.0,False,1,0.0,,,60.0,40.0,80.0,5.0
33.27006506221369,1510,273.8749694824219,331.0184020996094,-0.0011706161312758923,0.3473976254463196,0.022061510011553764,0.0031619775108993053,5.209310054779053,0.026085371151566505,-0.00023079871607478708,5.209375370107082,18.753751332385498,0.49949678778648376,-0.00025039538741111755,0.0,False,1,0.0,,,60.0,40.0,80.0,5.0
33.299553100485355,1511,274.0274658203125,331.0188293457031,-0.0011854552431032062,0.3179622292518616,0.013926754705607891,0.007562870159745216,5.155936241149902,0.012927432544529438,-8.310317934956402e-05,5.155952448211806,18.561428813562504,0.5054754614830017,-0.01524379849433899,0.0,False,1,0.0,,,60.0,40.0,80.0,5.0
33.32813748391345,1512,274.1751403808594,331.0187683105469,-0.0011901473626494408,0.272163063287735,0.009138792753219604,0.013741717673838139,5.1729936599731445,-0.00021880277199670672,0.0001262855512322858,5.17299366614198,18.622777198111127,0.5030060410499573,-0.022817542776465416,0.0,False,1,0.0,,,60.0,40.0,80.0,5.0
33.357236387673765,1513,274.32476806640625,331.0184020996094,-0.0011910247849300504,0.21030911803245544,0.0036609810777008533,0.019457971677184105,5.128948211669922,-0.013862024061381817,0.00023453711764886975,5.128966949465636,18.46428101807629,0.4997803568840027,-0.022817542776465416,0.0,False,1,0.0,,,60.0,40.0,80.0,5.0
33.38697819085792,1514,274.4777526855469,331.0176086425781,-0.0011862944811582565,0.1378888189792633,0.0012704151449725032,0.023564686998724937,5.15157413482666,-0.023430993780493736,0.00027378080994822085,5.1516274276232865,18.545858739443833,0.5003722310066223,-0.02523435279726982,0.0,False,1,0.0,,,60.0,40.0,80.0,5.0
33.41777401836589,1515,274.6379699707031,331.01702880859375,-0.0011720657348632812,0.08070836216211319,0.007936679758131504,0.01974082551896572,5.239565372467041,-0.015118456445634365,7.995605119504035e-05,5.239587184738312,18.862513865057924,0.5018932223320007,-0.005642391741275787,0.0,False,1,0.0,,,60.0,40.0,80.0,5.0
33.44914412917569,1516,274.8026428222656,331.01654052734375,-0.0011651992099359632,0.04073804244399071,0.014514151029288769,0.015533550642430782,5.265843391418457,-0.01381571963429451,-0.00011960029223700985,5.265861516538266,18.957101459537757,0.5017087459564209,-0.006402995437383652,0.0,False,1,0.0,,,60.0,40.0,80.0,5.0
33.477762528229505,1517,274.9528503417969,331.01556396484375,-0.001166496193036437,-0.014678956009447575,0.015204000286757946,0.020690687000751495,5.229456901550293,-0.03624735400080681,-2.8400419978424907e-05,5.22958252221443,18.826497079971947,0.5099263787269592,-0.031129909679293633,0.0,False,1,0.0,,,60.0,40.0,80.0,5.0
33.508289410267025,1518,275.11358642578125,331.0142517089844,-0.0011621856829151511,-0.0815124586224556,0.016604188829660416,0.02322455495595932,5.272103786468506,-0.04139024019241333,7.182597619248554e-05,5.272266257733738,18.980158527841457,0.5045744180679321,-0.017673682421445847,0.0,False,1,0.0,,,60.0,40.0,80.0,5.0
33.53651512833312,1519,275.26287841796875,331.0129089355469,-0.0011579894926398993,-0.1414794921875,0.01808634027838707,0.023404080420732498,5.293929100036621,-0.044734884053468704,7.212638593045995e-05,5.29411810703804,19.058825185336943,0.5004805326461792,-0.017673682421445847,0.0,False,1,0.0,,,60.0,40.0,80.0,5.0
33.567643475253135,1520,275.4285583496094,331.0118408203125,-0.0011539459228515625,-0.181182861328125,0.021842943504452705,0.016114678233861923,5.347621440887451,-0.03102525882422924,-0.0001323032338405028,5.347711441282938,19.251761188618577,0.5017363429069519,0.0018178075551986694,0.0,False,1,0.0,,,60.0,40.0,80.0,5.0
33.5968899470754,1521,275.58441162109375,331.0111999511719,-0.001162681495770812,-0.19183345139026642,0.021317020058631897,0.007990044541656971,5.310085773468018,-0.020935939624905586,-0.00033493994851596653,5.3101270556682705,19.116457400405775,0.5000622868537903,0.0072493776679039,0.0,False,1,0.0,,,60.0,40.0,80.0,5.0
33.63230936648324,1522,275.7732238769531,331.01043701171875,-0.0011785506503656507,-0.199249267578125,0.019090376794338226,0.005116127897053957,5.320659637451172,-0.02325863018631935,-0.00032961845863610506,5.320710483584736,19.154557740905048,0.4965822100639343,-0.00271519273519516,0.0,False,1,0.0,,,60.0,40.0,80.0,5.0
33.6616835729219,1523,275.929931640625,331.00970458984375,-0.0011882781982421875,-0.2082824558019638,0.017389660701155663,0.0050287977792322636,5.342776775360107,-0.025144383311271667,-0.00021526336786337197,5.342835947105036,19.23420940957813,0.5020420551300049,-0.003903079777956009,0.0,False,1,0.0,,,60.0,40.0,80.0,5.0
33.69038255745545,1524,276.0826416015625,331.0095520019531,-0.0011995696695521474,-0.1885375827550888,0.013865283690392971,-0.003936767112463713,5.313771724700928,-0.0010552776511758566,-0.00028780935099348426,5.313771837280578,19.129578614210082,0.5028786659240723,0.022495046257972717,0.0,False,1,0.0,,,60.0,40.0,80.0,5.0
33.719864221755415,1525,276.23974609375,331.0099182128906,-0.0012017440749332309,-0.143646240234375,0.011973320506513119,-0.012176513671875,5.338455677032471,0.010903204791247845,0.0001327037753071636,5.338466812964676,19.218480526672835,0.5021586418151855,0.021272696554660797,0.0,False,1,0.0,,,60.0,40.0,80.0,5.0
33.75041847722605,1526,276.40435791015625,331.0108947753906,-0.0011854552431032062,-0.0689086839556694,0.017990717664361,-0.021820068359375,5.4264020919799805,0.03298688679933548,0.00038724899059161544,5.426502367870782,19.535408524334816,0.5025240182876587,0.02880483865737915,0.0,False,1,0.0,,,60.0,40.0,80.0,5.0
33.77809727797285,1527,276.5543212890625,331.0115661621094,-0.0011721038026735187,-0.01889037899672985,0.02092086896300316,-0.01834106259047985,5.403061866760254,0.019134366884827614,0.0002664184430614114,5.403095754381341,19.451144715772827,0.4992656707763672,-0.0027986280620098114,0.0,False,1,0.0,,,60.0,40.0,80.0,5.0
33.80905023077503,1528,276.72271728515625,331.0119323730469,-0.0011678313603624701,0.01094975695014,0.02348218858242035,-0.0118408203125,5.448331356048584,0.01200866885483265,-5.8650970458984375e-05,5.448344590503597,19.61404052581295,0.5059036016464233,-0.00020804256200790405,0.0,False,1,0.0,,,60.0,40.0,80.0,5.0
33.83575603784993,1529,276.8688049316406,331.0121765136719,-0.0011692809639498591,0.02261819690465927,0.02546977438032627,-0.007049561012536287,5.4765472412109375,0.007246831897646189,-0.00018974303384311497,5.47655203917484,19.715587341029426,0.5075697302818298,-0.001921236515045166,0.0,False,1,0.0,,,60.0,40.0,80.0,5.0
33.866116172168404,1530,277.0358581542969,331.01190185546875,-0.0011736678425222635,0.00895058922469616,0.02871411293745041,0.001591215841472149,5.527102947235107,-0.010176565498113632,-0.0003609037376008928,5.527112327614833,19.897604379413398,0.5127260684967041,-0.015117019414901733,0.0,False,1,0.0,,,60.0,40.0,80.0,5.0
33.896073028910905,1531,277.2010803222656,331.011474609375,-0.0011801146902143955,-0.01522826962172985,0.02801743522286415,0.005873259622603655,5.4939141273498535,-0.013100306503474712,-9.552001574775204e-05,5.493929747079849,19.778147089487458,0.5069369673728943,-0.007111687213182449,0.0,False,1,0.0,,,60.0,40.0,80.0,5.0
33.92720160866156,1532,277.3731994628906,331.0111389160156,-0.0011816787300631404,-0.035858154296875,0.027587132528424263,0.005770040675997734,5.538046836853027,-0.01158641092479229,-2.5482177079538815e-05,5.538058957138799,19.937012245699677,0.5052747130393982,-0.0025146380066871643,0.0,False,1,0.0,,,60.0,40.0,80.0,5.0
33.95627981657162,1533,277.53466796875,331.01031494140625,-0.00118083949200809,-0.07354736328125,0.027300264686346054,0.011873097158968449,5.556731224060059,-0.02969229780137539,0.00011432647443143651,5.55681055481139,20.004517997321006,0.5036361217498779,-0.023612840101122856,0.0,False,1,0.0,,,60.0,40.0,80.0,5.0
33.98465914512053,1534,277.6918029785156,331.0093688964844,-0.0011803817469626665,-0.11492919921875,0.02359147183597088,0.013788759708404541,5.531538963317871,-0.03134273365139961,0.00019049644470214844,5.531627762778817,19.913859946003743,0.5086491107940674,-0.009102573618292809,0.0,False,1,0.0,,,60.0,40.0,80.0,5.0
34.0169648216106,1535,277.87139892578125,331.0080261230469,-0.0011761855566874146,-0.1678771823644638,0.022525962442159653,0.016711454838514328,5.565989017486572,-0.04284920543432236,0.00017529487377032638,5.566153952947743,20.038154230611873,0.5054720640182495,-0.017402032390236855,0.0,False,1,0.0,,,60.0,40.0,80.0,5.0
34.04982118913904,1536,278.0551452636719,331.00634765625,-0.001168212853372097,-0.2304687649011612,0.023748567327857018,0.019810276105999947,5.5951128005981445,-0.052279479801654816,0.00019969939603470266,5.595357042701153,20.14328535372415,0.5016663074493408,-0.017402032390236855,0.0,False,1,0.0,,,60.0,40.0,80.0,5.0
34.078971665818244,1537,278.2186584472656,331.00445556640625,-0.0011615371331572533,-0.2994385063648224,0.023844189941883087,0.024441203102469444,5.614841938018799,-0.06572460383176804,0.0002543926239013672,5.615226600699134,20.21481576251688,0.5005815029144287,-0.026667295023798943,0.0,False,1,0.0,,,60.0,40.0,80.0,5.0
34.10978336120024,1538,278.392822265625,331.0022277832031,-0.001149253803305328,-0.3714905083179474,0.027689585462212563,0.02500339038670063,5.683282852172852,-0.06908714771270752,0.00019101619545836002,5.683702758613284,20.46132993100782,0.506812334060669,-0.014925245195627213,0.0,False,1,0.0,,,60.0,40.0,80.0,5.0
34.14138391474262,1539,278.57293701171875,331.0004577636719,-0.0011435699416324496,-0.40536490082740784,0.03149399906396866,0.01485909428447485,5.715145111083984,-0.048436783254146576,-0.00012983799388166517,5.715350363676499,20.575261309235394,0.4975327253341675,0.009580165147781372,0.0,False,1,0.0,,,60.0,40.0,80.0,5.0
34.17392027238384,1540,278.7591552734375,330.9992980957031,-0.001152305630967021,-0.4009093642234802,0.03303762152791023,0.0037475896533578634,5.738978862762451,-0.03427697718143463,-0.00042197227594442666,5.739081239750793,20.660692463102855,0.4999021887779236,0.01172877848148346,0.0,False,1,0.0,,,60.0,40.0,80.0,5.0
34.20263555506244,1541,278.9235534667969,330.9982604980469,-0.0011687087826430798,-0.3923949599266052,0.030367018654942513,0.0009438166161999106,5.708585262298584,-0.03661760687828064,-0.00042326925904490054,5.708702718238439,20.551329785658382,0.5006115436553955,-0.00042898207902908325,0.0,False,1,0.0,,,60.0,40.0,80.0,5.0
34.23254564451054,1542,279.0946350097656,330.99700927734375,-0.0011829757131636143,-0.3953857421875,0.026296226307749748,0.0031424781773239374,5.723959922790527,-0.043815772980451584,-0.00021867750911042094,5.72412762501797,20.606859450064693,0.5035485625267029,-0.006918467581272125,0.0,False,1,0.0,,,60.0,40.0,80.0,5.0
34.26108544366434,1543,279.2574462890625,330.99566650390625,-0.0011924743885174394,-0.4063415825366974,0.021228225901722908,0.005143979098647833,5.700591087341309,-0.047518808394670486,-6.258010398596525e-05,5.700789137140812,20.522840893706924,0.5033761858940125,-0.005232129245996475,0.0,False,1,0.0,,,60.0,40.0,80.0,5.0
34.29219782212749,1544,279.43572998046875,330.9942626953125,-0.0011942291166633368,-0.4151000678539276,0.02036762237548828,0.004254810977727175,5.742320537567139,-0.044603049755096436,-2.9134749638615176e-05,5.742493760472156,20.67297753769976,0.5038280487060547,0.0006780736148357391,0.0,False,1,0.0,,,60.0,40.0,80.0,5.0
34.31996613042429,1545,279.59564208984375,330.9930725097656,-0.0011943817371502519,-0.4179687201976776,0.021173585206270218,0.0027972429525107145,5.764479160308838,-0.0432787649333477,-5.7573317462811247e-05,5.7646416232445645,20.75270984368043,0.5072357654571533,0.0007185116410255432,0.0,False,1,0.0,,,60.0,40.0,80.0,5.0
34.350124730262905,1546,279.77044677734375,330.9918212890625,-0.0011918258387595415,-0.4183349311351776,0.024663811549544334,0.0016350796213373542,5.822905540466309,-0.04255528748035431,-7.165431452449411e-05,5.823061041309812,20.963019748715322,0.5034761428833008,0.0007185116410255432,0.0,False,1,0.0,,,60.0,40.0,80.0,5.0
34.38022601092234,1547,279.9463806152344,330.9905090332031,-0.0011875152122229338,-0.4207458198070526,0.029199056327342987,0.001927731791511178,5.8636932373046875,-0.04513421282172203,-2.950191446871031e-05,5.863866939081252,21.109920980692507,0.5028023719787598,-0.002145141363143921,0.0,False,1,0.0,,,60.0,40.0,80.0,5.0
34.40907394932583,1548,280.1153564453125,330.98876953125,-0.0011862564133480191,-0.4442443549633026,0.029390301555395126,0.007976075634360313,5.839688777923584,-0.061753373593091965,0.00010464667866472155,5.840015283636482,21.024055021091336,0.5017036199569702,-0.018582802265882492,0.0,False,1,0.0,,,60.0,40.0,80.0,5.0
34.43738986970857,1549,280.2810974121094,330.9872131347656,-0.001184654189273715,-0.46292105317115784,0.026951925829052925,0.00709014805033803,5.857761859893799,-0.05393712967634201,0.00014068603923078626,5.858010177609522,21.08883663939428,0.5011001825332642,0.002667270600795746,0.0,False,1,0.0,,,60.0,40.0,80.0,5.0
34.466958668548614,1550,280.4535217285156,330.9855041503906,-0.001190185546875,-0.4802551865577698,0.021248716861009598,0.006885969080030918,5.819103717803955,-0.05755990371108055,4.132270623813383e-05,5.819388389064835,20.949798200633406,0.5033038854598999,-0.005695939064025879,0.0,False,1,0.0,,,60.0,40.0,80.0,5.0
34.4968081288971,1551,280.6275329589844,330.984130859375,-0.001195831224322319,-0.4786376357078552,0.017007170245051384,0.0011533735087141395,5.835532188415527,-0.0435728058218956,-8.057594095589593e-05,5.835694861619599,21.00850150183056,0.5002070665359497,0.012503731995821,0.0,False,1,0.0,,,60.0,40.0,80.0,5.0
34.52886221418157,1552,280.81549072265625,330.9831237792969,-0.0011967468308284879,-0.4528808891773224,0.018612263724207878,-0.0057373046875,5.890985488891602,-0.032165877521038055,1.5592575437040068e-05,5.891073304097586,21.20786389475131,0.49989253282546997,0.012303408235311508,0.0,False,1,0.0,,,60.0,40.0,80.0,5.0
34.56182603398338,1553,281.010009765625,330.9822998046875,-0.0011895751813426614,-0.41534423828125,0.021351169794797897,-0.009765625,5.916733741760254,-0.02602611668407917,0.00014344215742312372,5.91679098415768,21.300447542967646,0.49861040711402893,0.010702051222324371,0.0,False,1,0.0,,,60.0,40.0,80.0,5.0
34.59788145357743,1554,281.2232666015625,330.98138427734375,-0.001184768625535071,-0.38031005859375,0.021474113687872887,-0.009216309525072575,5.923877239227295,-0.027530469000339508,9.252547897631302e-05,5.923941211787938,21.32618836243658,0.5004125833511353,0.00406993180513382,0.0,False,1,0.0,,,60.0,40.0,80.0,5.0
34.629611829761416,1555,281.41168212890625,330.97998046875,-0.0011844635009765625,-0.3829650580883026,0.022669397294521332,-0.0005187987699173391,5.957307815551758,-0.04769045114517212,-0.00015708446153439581,5.957498704409428,21.44699533587394,0.5018310546875,-0.014606226235628128,0.0,False,1,0.0,,,60.0,40.0,80.0,5.0
34.66040332848206,1556,281.5956726074219,330.9783020019531,-0.0011852263705804944,-0.404022216796875,0.02529902011156082,0.004923000931739807,5.993232727050781,-0.053291261196136475,-5.374431566451676e-05,5.993469653047462,21.576490750970862,0.5011149644851685,-0.008010853081941605,0.0,False,1,0.0,,,60.0,40.0,80.0,5.0
34.690510619897395,1557,281.7767028808594,330.9765625,-0.0011804199311882257,-0.4300841987133026,0.02837260439991951,0.007657245267182589,6.030230522155762,-0.05818517506122589,6.516456778626889e-05,6.030511227846465,21.709840420247275,0.499679833650589,-0.008010853081941605,0.0,False,1,0.0,,,60.0,40.0,80.0,5.0
34.71837193192914,1558,281.9446105957031,330.9750061035156,-0.0011786650866270065,-0.44790637493133545,0.02833162248134613,0.006570438388735056,6.012514591217041,-0.05447091534733772,4.9190519348485395e-05,6.0127613284277555,21.64594078233992,0.49963298439979553,-1.5232712030410767e-05,0.0,False,1,0.0,,,60.0,40.0,80.0,5.0
34.75040796445683,1559,282.1379089355469,330.973388671875,-0.00118083949200809,-0.4566956162452698,0.027156829833984375,0.003555580973625183,6.039174556732178,-0.04983103647828102,-6.088256850489415e-05,6.039380138936817,21.741768500172544,0.5025975108146667,0.002260308712720871,0.0,False,1,0.0,,,60.0,40.0,80.0,5.0
34.782632884103805,1560,282.3331298828125,330.97174072265625,-0.0011840438237413764,-0.4620361328125,0.026890452951192856,0.002593196928501129,6.061148643493652,-0.05161123722791672,-8.152007649186999e-05,6.061368377270817,21.82092615817494,0.500115156173706,-0.0017532557249069214,0.0,False,1,0.0,,,60.0,40.0,80.0,5.0
34.81557080941275,1561,282.5333251953125,330.97015380859375,-0.001187400775961578,-0.4610291123390198,0.026391848921775818,0.0005278880125842988,6.077664852142334,-0.046804673969745636,-9.34600830078125e-05,6.077845073807533,21.88024226570712,0.50441575050354,0.0035476386547088623,0.0,False,1,0.0,,,60.0,40.0,80.0,5.0
34.85190487699583,1562,282.75433349609375,330.96881103515625,-0.0011929702013731003,-0.4405517280101776,0.023687094449996948,-0.004791259765625,6.072250843048096,-0.03523014485836029,3.3464431908214465e-05,6.072353041871406,21.86047095073706,0.5002354979515076,0.010427523404359818,0.0,False,1,0.0,,,60.0,40.0,80.0,5.0
34.885824602562934,1563,282.96075439453125,330.96826171875,-0.0011906051076948643,-0.3860778510570526,0.02094818837940693,-0.01489257998764515,6.084920406341553,-0.01073442306369543,0.00028843877953477204,6.084929881481568,21.905747573333645,0.5041235685348511,0.025366511195898056,0.0,False,1,0.0,,,60.0,40.0,80.0,5.0
34.91757330717519,1564,283.1546325683594,330.9686279296875,-0.0011776351602748036,-0.297882080078125,0.02051788754761219,-0.02621460147202015,6.1119608879089355,0.01467160414904356,0.00048774719471111894,6.11197851674842,22.003122660294313,0.5003212094306946,0.03284741938114166,0.0,False,1,0.0,,,60.0,40.0,80.0,5.0
34.944377603475004,1565,283.3187561035156,330.969482421875,-0.0011620712466537952,-0.2043762058019638,0.0204973965883255,-0.0336608849465847,6.127877235412598,0.028482703492045403,0.000592889788094908,6.127943458306747,22.060596449904292,0.5027714967727661,0.03284741938114166,0.0,False,1,0.0,,,60.0,40.0,80.0,5.0
34.97446788707748,1566,283.50372314453125,330.97064208984375,-0.0011442565592005849,-0.0987243577837944,0.021965887397527695,-0.0363769568502903,6.167106628417969,0.036856360733509064,0.00047261235886253417,6.167216777523375,22.201980399084153,0.5017877221107483,0.02332175523042679,0.0,False,1,0.0,,,60.0,40.0,80.0,5.0
35.00193037511781,1567,283.67303466796875,330.97198486328125,-0.001133880577981472,-0.004119873046875,0.022157132625579834,-0.037750244140625,6.152571201324463,0.04834892600774765,0.00031693457276560366,6.1527611774276405,22.149940238739507,0.5037257671356201,0.02520596981048584,0.0,False,1,0.0,,,60.0,40.0,80.0,5.0
35.0322435204871,1568,283.8603210449219,330.9738464355469,-0.0011256790021434426,0.10319136083126068,0.022430339828133583,-0.040008544921875,6.188583850860596,0.06313911825418472,0.0002278566244058311,6.188905935567701,22.28006136804372,0.49964141845703125,0.02816043794155121,0.0,False,1,0.0,,,60.0,40.0,80.0,5.0
35.061774565372616,1569,284.043212890625,330.9760437011719,-0.0011204909533262253,0.21010909974575043,0.021870264783501625,-0.041595458984375,6.191623210906982,0.0722205713391304,0.00019017218437511474,6.192044398494903,22.29135983458165,0.49966198205947876,0.027672622352838516,0.0,False,1,0.0,,,60.0,40.0,80.0,5.0
35.08910117344931,1570,284.21197509765625,330.9784240722656,-0.0011205673217773438,0.3122861385345459,0.018612263724207878,-0.0432128943502903,6.175687313079834,0.08632653951644897,0.00013697623217012733,6.176290640758625,22.23464630673105,0.4987539052963257,0.027672622352838516,0.0,False,1,0.0,,,60.0,40.0,80.0,5.0
35.118335659150034,1571,284.3925476074219,330.9812927246094,-0.0011213301913812757,0.4203033149242401,0.015381584875285625,-0.043731689453125,6.178946495056152,0.09487581253051758,0.00011270523100392893,6.179674847536277,22.246829451130598,0.4987539052963257,0.027672622352838516,0.0,False,1,0.0,,,60.0,40.0,80.0,5.0
35.14831550465897,1572,284.5769348144531,330.98370361328125,-0.0011302566854283214,0.4906834363937378,0.009972075931727886,-0.03228759765625,6.139005184173584,0.07451502978801727,-0.0002005863207159564,6.139457401204876,22.102046644337552,0.49664875864982605,-0.0057523213326931,0.0,False,1,0.0,,,60.0,40.0,80.0,5.0
35.18524028779939,1573,284.803955078125,330.98583984375,-0.0011531829368323088,0.5169475078582764,0.006010565906763077,-0.016357421875,6.139947891235352,0.05519723892211914,-0.0005957698449492455,6.140196022702514,22.10470568172905,0.4970037341117859,-0.010606182739138603,0.0,False,1,0.0,,,60.0,40.0,80.0,5.0
35.213698307517916,1574,284.9789733886719,330.9871826171875,-0.0011742019560188055,0.5087493062019348,0.004753811284899712,-0.007537841331213713,6.155704021453857,0.04682731628417969,-0.0006942367181181908,6.155882169052473,22.161175808588904,0.4986383318901062,-0.010606182739138603,0.0,False,1,0.0,,,60.0,40.0,80.0,5.0
35.2442241483368,1575,285.1677551269531,330.98870849609375,-0.0011880873935297132,0.5009812116622925,0.008223547600209713,-0.005828857421875,6.208628177642822,0.05213679373264313,-0.0005120229325257242,6.208847103581198,22.351849572892313,0.49741774797439575,0.0013867281377315521,0.0,False,1,0.0,,,60.0,40.0,80.0,5.0
35.27128617512062,1576,285.3358459472656,330.990234375,-0.0011945724254474044,0.5027889013290405,0.011105886660516262,-0.006988524924963713,6.200943946838379,0.05685701593756676,-0.00030587194487452507,6.20120461246446,22.32433660487206,0.4970242977142334,0.004326783120632172,0.0,False,1,0.0,,,60.0,40.0,80.0,5.0
35.301662689540535,1577,285.52508544921875,330.99188232421875,-0.0011968993349000812,0.5021674036979675,0.01424777414649725,-0.00555419921875,6.242730140686035,0.052931688725948334,-0.00018104075570590794,6.2429545413912,22.47463634900832,0.49646952748298645,-0.0031321384012699127,0.0,False,1,0.0,,,60.0,40.0,80.0,5.0
35.32783575961366,1578,285.68890380859375,330.9931640625,-0.0011978911934420466,0.49641358852386475,0.016966188326478004,-0.00335693359375,6.26218843460083,0.05054750666022301,-0.0001767635258147493,6.262392439964402,22.544612783871848,0.49903714656829834,-0.0036952048540115356,0.0,False,1,0.0,,,60.0,40.0,80.0,5.0
35.356729632709175,1579,285.86932373046875,330.9945373535156,-0.0012046813499182463,0.4853890836238861,0.015408906154334545,-0.0009765625,6.232308864593506,0.0467623732984066,-0.0001608943857718259,6.232484298346391,22.436943474047006,0.4968520402908325,-0.004695706069469452,0.0,False,1,0.0,,,60.0,40.0,80.0,5.0
35.3893635221757,1580,286.07342529296875,330.9958190917969,-0.0012099456507712603,0.4623323380947113,0.014616603963077068,0.003050357336178422,6.258081912994385,0.038099534809589386,-7.722377631580457e-05,6.258197888391169,22.529512398208208,0.49729666113853455,-0.009721517562866211,0.0,False,1,0.0,,,60.0,40.0,80.0,5.0
35.421300584916025,1581,286.27392578125,330.9970703125,-0.001207656809128821,0.4417254626750946,0.016016792505979538,0.003390844911336899,6.284984111785889,0.04124026745557785,2.4509428840246983e-05,6.285119413794902,22.626429889661647,0.49794429540634155,-0.001243092119693756,0.0,False,1,0.0,,,60.0,40.0,80.0,5.0
35.4469218426384,1582,286.4353332519531,330.9977722167969,-0.001204261789098382,0.41259393095970154,0.017294038087129593,0.008244489319622517,6.304962158203125,0.02579416148364544,0.00011950492626056075,6.305014922220365,22.698053719993315,0.5014921426773071,-0.02047443389892578,0.0,False,1,0.0,,,60.0,40.0,80.0,5.0
35.47760737175122,1583,286.6292724609375,330.998046875,-0.0011940764961764216,0.3542991578578949,0.019158679991960526,0.016102325171232224,6.335700511932373,0.00939891766756773,0.0003280210366938263,6.335707491997343,22.808546971190435,0.49975478649139404,-0.02116171270608902,0.0,False,1,0.0,,,60.0,40.0,80.0,5.0
35.50879682088271,1584,286.82733154296875,330.99798583984375,-0.0011793518206104636,0.28484129905700684,0.021610718220472336,0.02082446776330471,6.362407207489014,0.0002978446427732706,0.0003698110522236675,6.362407225208066,22.904666010749036,0.5019067525863647,-0.017533764243125916,0.0,False,1,0.0,,,60.0,40.0,80.0,5.0
35.53524197312072,1585,286.99554443359375,330.99774169921875,-0.0011700820177793503,0.2231539636850357,0.021685849875211716,0.02329126000404358,6.3527445793151855,-0.0083016874268651,0.0003227138367947191,6.352750011780476,22.869900042409714,0.5024223923683167,-0.017533764243125916,0.0,False,1,0.0,,,60.0,40.0,80.0,5.0
35.56329233245924,1586,287.17388916015625,330.9973449707031,-0.0011642837198451161,0.15737903118133545,0.019903169944882393,0.024641267955303192,6.35972261428833,-0.014092559926211834,0.0002700424229260534,6.359738233910148,22.895057642076534,0.5024223923683167,-0.017533764243125916,0.0,False,1,0.0,,,60.0,40.0,80.0,5.0
35.5924426340498,1587,287.35858154296875,330.99615478515625,-0.0011625289916992188,0.06455054134130478,0.015060566365718842,0.03271906450390816,6.324561595916748,-0.04196358099579811,0.0003195953322574496,6.324700817020215,22.768922941272773,0.5009346008300781,-0.035822901874780655,0.0,False,1,0.0,,,60.0,40.0,80.0,5.0
35.62215781258419,1588,287.54656982421875,330.99530029296875,-0.0011593627277761698,-0.0036315915640443563,0.010859999805688858,0.026174593716859818,6.32925271987915,-0.022207727655768394,0.00016958235937636346,6.329291682646916,22.785450057528898,0.5021582245826721,0.004905708134174347,0.0,False,1,0.0,,,60.0,40.0,80.0,5.0
35.649254659656435,1589,287.7177734375,330.9939270019531,-0.001162033062428236,-0.0823669359087944,0.00786837749183178,0.03225678205490112,6.3203043937683105,-0.05561837553977966,8.713721763342619e-05,6.320549109150058,22.753976792940207,0.5002985596656799,-0.037626441568136215,0.0,False,1,0.0,,,60.0,40.0,80.0,5.0
35.677623462397605,1590,287.8971862792969,330.99249267578125,-0.001159248291514814,-0.154541015625,0.00645452830940485,0.02997954562306404,6.329623222351074,-0.04510831832885742,0.00010968207789119333,6.3297839543967545,22.787222235828317,0.4982195794582367,-0.004057265818119049,0.0,False,1,0.0,,,60.0,40.0,80.0,5.0
35.7101153251715,1591,288.103271484375,330.9915466308594,-0.001161766005679965,-0.1878661960363388,0.00777958519756794,0.01752631925046444,6.359800338745117,-0.024782778695225716,-0.00030049323686398566,6.3598486322489265,22.895455076096138,0.5011671781539917,0.009928777813911438,0.0,False,1,0.0,,,60.0,40.0,80.0,5.0
35.73810953879729,1592,288.2811584472656,330.9913330078125,-0.0011740875197574496,-0.1764526218175888,0.008414792828261852,0.005299272481352091,6.3438720703125,-0.006616945844143629,-0.000559310894459486,6.343875545854599,22.837951965076556,0.5004590749740601,0.018175754696130753,0.0,False,1,0.0,,,60.0,40.0,80.0,5.0
35.77058677235618,1593,288.4879150390625,330.9914245605469,-0.0011923599522560835,-0.13946533203125,0.009685208089649677,-0.003631591796875,6.372565269470215,0.004420176148414612,-0.0005160713335499167,6.3725668233408745,22.941240564027147,0.5006783604621887,0.014164578169584274,0.0,False,1,0.0,,,60.0,40.0,80.0,5.0
35.797806470189244,1594,288.66168212890625,330.99163818359375,-0.0011981582501903176,-0.1040038913488388,0.011112716980278492,-0.006774901412427425,6.387927532196045,0.0058937398716807365,-0.00018282889504916966,6.387930253703803,22.99654891333369,0.5024501085281372,0.008716076612472534,0.0,False,1,0.0,,,60.0,40.0,80.0,5.0
35.827822726685554,1595,288.8541259765625,330.991943359375,-0.0011967468308284879,-0.0653991550207138,0.014206793159246445,-0.008392333053052425,6.430414199829102,0.009871463291347027,-4.7011373681016266e-05,6.4304217769413325,23.149518396988796,0.5031718015670776,0.008716076612472534,0.0,False,1,0.0,,,60.0,40.0,80.0,5.0
35.857455047313124,1596,289.0445556640625,330.9925231933594,-0.0011944579891860485,-0.021942138671875,0.015497698448598385,-0.0113525390625,6.409058094024658,0.018785657361149788,4.626273948815651e-05,6.409085625551099,23.072708251983958,0.5028744339942932,0.013345018029212952,0.0,False,1,0.0,,,60.0,40.0,80.0,5.0
35.88904048362747,1597,289.24774169921875,330.9932861328125,-0.0011910628527402878,0.02474348247051239,0.01578456722199917,-0.012786866165697575,6.440173149108887,0.022784730419516563,0.00010083675442729145,6.440213454895064,23.184768437622232,0.4998980760574341,0.009660590440034866,0.0,False,1,0.0,,,60.0,40.0,80.0,5.0
35.916232152376324,1598,289.423095703125,330.9940185546875,-0.001187553396448493,0.0633775070309639,0.016378792002797127,-0.013397215865552425,6.452524662017822,0.025667181238532066,9.91725901258178e-05,6.452575712688395,23.229272565678222,0.5001012682914734,0.009660590440034866,0.0,False,1,0.0,,,60.0,40.0,80.0,5.0
35.94433230208233,1599,289.6039733886719,330.9951171875,-0.001187019282951951,0.11571945995092392,0.014008717611432076,-0.01788329891860485,6.428889751434326,0.041324060410261154,0.00015715598419774324,6.429022564804397,23.144481233295828,0.49890345335006714,0.020360544323921204,0.0,False,1,0.0,,,60.0,40.0,80.0,5.0
35.97179067181423,1600,289.7807312011719,330.99615478515625,-0.0011849594302475452,0.1592930555343628,0.012075773440301418,-0.0166015625,6.44164514541626,0.035588160157203674,0.00013818740262649953,6.441743453111433,23.19027643120116,0.5001833438873291,0.0029539726674556732,0.0,False,1,0.0,,,60.0,40.0,80.0,5.0
36.00028228247538,1601,289.9638366699219,330.99725341796875,-0.0011875915806740522,0.1934802234172821,0.009029509499669075,-0.014160157181322575,6.41740608215332,0.035697415471076965,6.513595508295111e-06,6.4175053664778625,23.103019319320307,0.4995688199996948,0.004608374089002609,0.0,False,1,0.0,,,60.0,40.0,80.0,5.0
