time_stamp,frame,x,y,z,yaw,pitch,roll,vx,vy,vz,speed_mps,speed_kmh,throttle,steer,brake,reverse,gear,collision_impulse,collision_with,lane_invasion,weather_cloud,weather_rain,weather_wetness,weather_fog
49.30525289988145,2036,264.5271911621094,330.89495849609375,-0.0012713623000308871,-2.8831794261932373,0.04616524651646614,0.015632014721632004,2.4388253688812256,-0.17531973123550415,-0.0001411628763889894,2.4451188535500874,8.802427872780315,0.49729129672050476,-0.045109592378139496,0.0,False,1,0.0,,,60.0,40.0,80.0,5.0
49.34304607054219,2037,264.61981201171875,330.8885498046875,-0.0012944031041115522,-2.9684455394744873,0.045304641127586365,0.009223864413797855,2.4756791591644287,-0.16533046960830688,-0.0005325889214873314,2.4811936133548618,8.932297008077503,0.496383398771286,-0.02636367827653885,0.0,False,1,0.0,,,60.0,40.0,80.0,5.0
49.39653138583526,2038,264.7536926269531,330.87890625,-0.0012861251598224044,-3.1035773754119873,0.045202188193798065,0.011538960039615631,2.5383780002593994,-0.1849040985107422,0.0001579093950567767,2.545103617297802,9.162373022272087,0.49696284532546997,-0.04149133339524269,0.0,False,1,0.0,,,60.0,40.0,80.0,5.0
49.44051588093862,2039,264.8663635253906,330.8700256347656,-0.0012727737193927169,-3.241730213165283,0.0455641895532608,0.0170926284044981,2.577634811401367,-0.2025153487920761,0.00028292654315009713,2.5855780335336944,9.3080809207213,0.49668046832084656,-0.050578244030475616,0.0,False,1,0.0,,,60.0,40.0,80.0,5.0
49.47462676977739,2040,264.9555358886719,330.86273193359375,-0.0012540053576231003,-3.3525400161743164,0.04663652926683426,0.019844453781843185,2.625302314758301,-0.21323956549167633,0.0004251956706866622,2.6339482790969395,9.482213804748982,0.49668046832084656,-0.050578244030475616,0.0,False,1,0.0,,,60.0,40.0,80.0,5.0
49.52947134664282,2041,265.1017761230469,330.8504638671875,-0.0012658309424296021,-3.5279247760772705,0.04708732292056084,0.02013549394905567,2.684528112411499,-0.22365283966064453,-0.0001587295555509627,2.6938284659961163,9.697782477586019,0.49645188450813293,-0.047335751354694366,0.0,False,1,0.0,,,60.0,40.0,80.0,5.0
49.559553836937994,2042,265.1838073730469,330.84344482421875,-0.001223068218678236,-3.6214911937713623,0.04861728474497795,0.02014518901705742,2.744413375854492,-0.2325633019208908,0.001110343961045146,2.7542497526246796,9.915299109448847,0.4962548017501831,-0.04635530710220337,0.0,False,1,0.0,,,60.0,40.0,80.0,5.0
49.59453758737072,2043,265.2808837890625,330.83489990234375,-0.0012312697945162654,-3.728729724884033,0.050017472356557846,0.020031768828630447,2.784940719604492,-0.24030128121376038,-0.00024898527772165835,2.7952888186121,10.063039747003561,0.4972677528858185,-0.04598785191774368,0.0,False,1,0.0,,,60.0,40.0,80.0,5.0
49.626996082719415,2044,265.37237548828125,330.82672119140625,-0.0012174606090411544,-3.8343207836151123,0.05109664052724838,0.02139274775981903,2.833573818206787,-0.2530924081802368,0.00030217645689845085,2.844854379685553,10.24147576686799,0.4965423345565796,-0.049987345933914185,0.0,False,1,0.0,,,60.0,40.0,80.0,5.0
49.65984574100003,2045,265.46649169921875,330.81781005859375,-0.0012110519455745816,-3.9545602798461914,0.05205287039279938,0.025028705596923828,2.8789148330688477,-0.27075719833374023,0.00015984535275492817,2.891618941365529,10.409828188915904,0.49667632579803467,-0.05744876712560654,0.0,False,1,0.0,,,60.0,40.0,80.0,5.0
49.7066744803451,2046,265.6025085449219,330.8040466308594,-0.0012502670288085938,-4.145508766174316,0.05068683251738548,0.030941402539610863,2.9190502166748047,-0.29398679733276367,-0.0005014133057557046,2.9338170794871488,10.561741486153736,0.4964536726474762,-0.06493749469518661,0.0,False,1,0.0,,,60.0,40.0,80.0,5.0
49.73813608428463,2047,265.6953125,330.7945556640625,-0.001216888427734375,-4.2733473777771,0.050557058304548264,0.03055902197957039,2.970259428024292,-0.30028191208839417,0.000857124337926507,2.9853996434576033,10.747438716447371,0.4965963363647461,-0.056041814386844635,0.0,False,1,0.0,,,60.0,40.0,80.0,5.0
49.771842477377504,2048,265.79644775390625,330.7844543457031,-0.0012148284586146474,-4.3884596824646,0.05125373601913452,0.02529733255505562,3.0174357891082764,-0.2977810502052307,-5.83171822654549e-05,3.032093715348144,10.915537375253319,0.49581554532051086,-0.043220482766628265,0.0,False,1,0.0,,,60.0,40.0,80.0,5.0
49.80774847557768,2049,265.9057312011719,330.7738952636719,-0.0012392806820571423,-4.486269474029541,0.05135618895292282,0.017767932265996933,3.0601351261138916,-0.2934279441833496,-0.0006446266197599471,3.0741710043599118,11.067015615695682,0.49537792801856995,-0.03303051367402077,0.0,False,1,0.0,,,60.0,40.0,80.0,5.0
49.84362197807059,2050,266.01654052734375,330.763427734375,-0.0012600708287209272,-4.562196254730225,0.05126739665865898,0.01068338192999363,3.106376886367798,-0.28962817788124084,-0.0005380630609579384,3.119849696875598,11.231458908752153,0.4951834976673126,-0.024752527475357056,0.0,False,1,0.0,,,60.0,40.0,80.0,5.0
49.87862710049376,2051,266.1263122558594,330.75286865234375,-0.0012663268717005849,-4.641115188598633,0.0517045296728611,0.010381447151303291,3.1560869216918945,-0.30301031470298767,-0.00015145301586017013,3.170599301556259,11.414157485602532,0.49622437357902527,-0.033826183527708054,0.0,False,1,0.0,,,60.0,40.0,80.0,5.0
49.91706501087174,2052,266.2486572265625,330.7404479980469,-0.0012978743761777878,-4.754885673522949,0.05158841609954834,0.016486208885908127,3.1984469890594482,-0.3258284330368042,-0.0005366992554627359,3.2150004039882734,11.574001454357784,0.49606284499168396,-0.045888930559158325,0.0,False,1,0.0,,,60.0,40.0,80.0,5.0
49.94653012184426,2053,266.3435363769531,330.73046875,-0.0013133620377629995,-4.858492374420166,0.0511922650039196,0.020132996141910553,3.2322795391082764,-0.33720633387565613,-0.00036131858360022306,3.2498214198775583,11.69935711155921,0.4965103566646576,-0.045406267046928406,0.0,False,1,0.0,,,60.0,40.0,80.0,5.0
49.97720965696499,2054,266.4440002441406,330.72003173828125,-0.0012550734682008624,-4.940920829772949,0.052981775254011154,0.017466701567173004,3.2993295192718506,-0.3349548578262329,0.0014580297283828259,3.3162889137363623,11.938640089450905,0.4965154826641083,-0.028579503297805786,0.0,False,1,0.0,,,60.0,40.0,80.0,5.0
50.00841815164313,2055,266.5481872558594,330.7091064453125,-0.0012212371220812201,-5.028231620788574,0.05617830157279968,0.018221251666545868,3.3609392642974854,-0.3523085415363312,0.0007842111517675221,3.379354178200786,12.16567504152283,0.49764537811279297,-0.03911611810326576,0.0,False,1,0.0,,,60.0,40.0,80.0,5.0
50.03902665851638,2056,266.6522216796875,330.6980895996094,-0.0011965560261160135,-5.112887859344482,0.05929286777973175,0.01810765638947487,3.41927433013916,-0.35927465558052063,0.0005146837211214006,3.438097655359783,12.377151559295218,0.4981071949005127,-0.033416055142879486,0.0,False,1,0.0,,,60.0,40.0,80.0,5.0
50.0744182462804,2057,266.77459716796875,330.685302734375,-0.0012195586459711194,-5.196902751922607,0.06196347251534462,0.01483377255499363,3.4798545837402344,-0.36096054315567017,-0.0006565761286765337,3.4985255278167355,12.594691900140248,0.4962235391139984,-0.02578388713300228,0.0,False,1,0.0,,,60.0,40.0,80.0,5.0
50.10502114100382,2058,266.8821716308594,330.6744384765625,-0.001202545128762722,-5.245639324188232,0.06355490535497665,0.008739679120481014,3.5350849628448486,-0.35442763566970825,0.00030243396759033203,3.5528080070452006,12.790108825362722,0.4952143728733063,-0.013195527717471123,0.0,False,1,0.0,,,60.0,40.0,80.0,5.0
50.136809706222266,2059,266.9957275390625,330.6632995605469,-0.0012070083757862449,-5.273165225982666,0.06492094695568085,0.0014493948547169566,3.592090368270874,-0.34828856587409973,-0.00027658938779495656,3.608935884086154,12.992169182710153,0.4941723346710205,-0.005446780472993851,0.0,False,1,0.0,,,60.0,40.0,80.0,5.0
50.16783817624673,2060,267.1081848144531,330.6522521972656,-0.0012088012881577015,-5.302950859069824,0.06593864411115646,0.0005540073034353554,3.6450936794281006,-0.3598339855670929,-9.99879848677665e-05,3.6628115483837527,13.18612157418151,0.493521511554718,-0.014213280752301216,0.0,False,1,0.0,,,60.0,40.0,80.0,5.0
50.20019700517878,2061,267.2271728515625,330.6396789550781,-0.0012170409318059683,-5.374484539031982,0.06655336171388626,0.010521450079977512,3.6969313621520996,-0.39502614736557007,-0.00010423183266539127,3.717976218916756,13.384714388100322,0.4958164393901825,-0.037612736225128174,0.0,False,1,0.0,,,60.0,40.0,80.0,5.0
50.22950845165178,2062,267.33648681640625,330.62762451171875,-0.0012629699194803834,-5.459659099578857,0.06699731945991516,0.01826634258031845,3.7462775707244873,-0.4120081961154938,-0.001254281960427761,3.7688656070232787,13.567916185283803,0.4957071542739868,-0.03610851615667343,0.0,False,1,0.0,,,60.0,40.0,80.0,5.0
50.26104702381417,2063,267.45556640625,330.61328125,-0.001225547748617828,-5.598514080047607,0.06725003570318222,0.03394963592290878,3.794437885284424,-0.46192052960395813,0.001174020697362721,3.8224508916761675,13.760823210034204,0.49910247325897217,-0.06929810345172882,0.0,False,1,0.0,,,60.0,40.0,80.0,5.0
50.29933206317946,2064,267.6025695800781,330.59619140625,-0.001250686589628458,-5.720189094543457,0.06786475330591202,0.027341803535819054,3.8660032749176025,-0.4377559423446655,-0.0006085395580157638,3.890708413265133,14.006550287754479,0.49606114625930786,-0.020721618086099625,0.0,False,1,0.0,,,60.0,40.0,80.0,5.0
50.33976640133187,2065,267.7606506347656,330.5783996582031,-0.0012179565383121371,-5.806521892547607,0.06849996000528336,0.01869332604110241,3.937406539916992,-0.4412616193294525,0.0005018234369345009,3.9620553162596193,14.263399138534629,0.49606114625930786,-0.020721618086099625,0.0,False,1,0.0,,,60.0,40.0,80.0,5.0
50.37659951252863,2066,267.9071350097656,330.5617370605469,-0.0012436675606295466,-5.883854389190674,0.06885513663291931,0.016487356275320053,4.000242233276367,-0.4538784921169281,-0.0005685901269316673,4.025909081659566,14.493272693974436,0.49367961287498474,-0.023604758083820343,0.0,False,1,0.0,,,60.0,40.0,80.0,5.0
50.410894002299756,2067,268.04559326171875,330.5462341308594,-0.001238975441083312,-5.936650276184082,0.06901222467422485,0.011042138561606407,4.059528350830078,-0.4496319591999054,3.5495755582815036e-05,4.0843529880737615,14.703670757065542,0.49285659193992615,-0.011173287406563759,0.0,False,1,0.0,,,60.0,40.0,80.0,5.0
50.45832569105551,2068,268.2402648925781,330.5237121582031,-0.0012728119036182761,-6.040440559387207,0.06877317279577255,0.016576116904616356,4.134815692901611,-0.4830508828163147,-0.0003912639513146132,4.162936358238321,14.986570889657957,0.4929641783237457,-0.028541460633277893,0.0,False,1,0.0,,,60.0,40.0,80.0,5.0
50.49923736928031,2069,268.41107177734375,330.50384521484375,-0.001235427800565958,-6.123203754425049,0.06841117143630981,0.015152468346059322,4.201764106750488,-0.48603692650794983,0.0007074832683429122,4.229781791444873,15.227214449201544,0.4926498830318451,-0.017447197809815407,0.0,False,1,0.0,,,60.0,40.0,80.0,5.0
50.531250446569175,2070,268.54656982421875,330.4880676269531,-0.0012159347534179688,-6.179966449737549,0.0679398849606514,0.013872402720153332,4.252315521240234,-0.4937564432621002,0.00048312186845578253,4.280885767087249,15.411188761514097,0.4907090365886688,-0.017447197809815407,0.0,False,1,0.0,,,60.0,40.0,80.0,5.0
50.56126874079928,2071,268.6751403808594,330.4736328125,-0.0011968612670898438,-6.201206207275391,0.06740030646324158,0.005416401661932468,4.301279067993164,-0.47656047344207764,0.00040602684020996094,4.327598834279961,15.579355803407859,0.48914819955825806,0.004060758277773857,0.0,False,1,0.0,,,60.0,40.0,80.0,5.0
50.596763563808054,2072,268.8290710449219,330.4571838378906,-0.0012338256929069757,-6.184635162353516,0.06658068299293518,-0.006439207121729851,4.357114315032959,-0.46290484070777893,-0.0007358264992944896,4.381635149947615,15.773886539811416,0.4881250858306885,0.011126769706606865,0.0,False,1,0.0,,,60.0,40.0,80.0,5.0
50.62664076453075,2073,268.96014404296875,330.4432678222656,-0.0012825775193050504,-6.168582916259766,0.06580886989831924,-0.009368895553052425,4.401430130004883,-0.4692571461200714,-0.0013057326432317495,4.426374494260205,15.93494817933674,0.48894816637039185,0.0032381247729063034,0.0,False,1,0.0,,,60.0,40.0,80.0,5.0
50.660736782010645,2074,269.1112976074219,330.42779541015625,-0.0012619781773537397,-6.125339984893799,0.06481166183948517,-0.01678466610610485,4.4531378746032715,-0.45226091146469116,0.0006328677991405129,4.476044823589981,16.11376136492393,0.4871833324432373,0.019726717844605446,0.0,False,1,0.0,,,60.0,40.0,80.0,5.0
50.69125926261768,2075,269.2480773925781,330.4143371582031,-0.001220970181748271,-6.065739154815674,0.06386909633874893,-0.02319335751235485,4.498058795928955,-0.44248315691947937,0.0012157725868746638,4.519770542172938,16.271173951822576,0.4878896474838257,0.02297147549688816,0.0,False,1,0.0,,,60.0,40.0,80.0,5.0
50.72242440795526,2076,269.3891296386719,330.4006652832031,-0.0011973571963608265,-6.003177642822266,0.06291969865560532,-0.02526855282485485,4.542287349700928,-0.4430917501449585,0.0006524372147396207,4.563847619276297,16.42985142939467,0.48724666237831116,0.018340876325964928,0.0,False,1,0.0,,,60.0,40.0,80.0,5.0
50.750848717521876,2077,269.5190124511719,330.3880920410156,-0.0012311935424804688,-5.950963020324707,0.06202494353055954,-0.0245361365377903,4.581824779510498,-0.44521281123161316,-0.0009887409396469593,4.603404580854242,16.572256491075272,0.4878094792366028,0.016154194250702858,0.0,False,1,0.0,,,60.0,40.0,80.0,5.0
50.780818791594356,2078,269.65716552734375,330.3747253417969,-0.0012713623000308871,-5.900882720947266,0.061102867126464844,-0.02270507998764515,4.6229424476623535,-0.4477187693119049,-0.0011042022379115224,4.644572121310546,16.720459636717965,0.4891936779022217,0.014673223719000816,0.0,False,1,0.0,,,60.0,40.0,80.0,5.0
50.81088113738224,2079,269.79693603515625,330.3613586425781,-0.001224784879013896,-5.853458881378174,0.06021494418382645,-0.021026611328125,4.663820266723633,-0.4493334889411926,0.0012895917752757668,4.685415854290109,16.86749707544439,0.49002161622047424,0.01422366313636303,0.0,False,1,0.0,,,60.0,40.0,80.0,5.0
50.84569955943152,2080,269.9603271484375,330.34539794921875,-0.0012326431460678577,-5.817417144775391,0.05926554650068283,-0.015319823287427425,4.709632396697998,-0.46288588643074036,-0.00022671699116472155,4.732325084700405,17.03637030492146,0.49209144711494446,0.004955718293786049,0.0,False,1,0.0,,,60.0,40.0,80.0,5.0
50.88050194410607,2081,270.1252746582031,330.3297119140625,-0.001239509554579854,-5.764347076416016,0.058322980999946594,-0.017913818359375,4.757327556610107,-0.4484916925430298,-8.516311208950356e-05,4.778421317382422,17.20231674257672,0.49084770679473877,0.02033267728984356,0.0,False,1,0.0,,,60.0,40.0,80.0,5.0
50.91797650558874,2082,270.3047180175781,330.3131103515625,-0.0012643813388422132,-5.693180084228516,0.0573667548596859,-0.02062988094985485,4.807003498077393,-0.44515514373779297,-0.00045408247387968004,4.827571432792621,17.379257158053438,0.490580677986145,0.018229758366942406,0.0,False,1,0.0,,,60.0,40.0,80.0,5.0
50.95377353159711,2083,270.47784423828125,330.29742431640625,-0.001259880024008453,-5.618228912353516,0.0564788319170475,-0.02282714657485485,4.853723526000977,-0.439676433801651,0.0001661300630075857,4.873596973580713,17.544949104890566,0.48900529742240906,0.020372552797198296,0.0,False,1,0.0,,,60.0,40.0,80.0,5.0
50.98423283500597,2084,270.6263122558594,330.283203125,-0.0012242125812917948,-5.598544597625732,0.05574117228388786,-0.0118408203125,4.888642311096191,-0.4754641652107239,0.0008292102720588446,4.9117095298713584,17.68215430753689,0.4909893572330475,-0.010735947638750076,0.0,False,1,0.0,,,60.0,40.0,80.0,5.0
51.015823535155505,2085,270.78155517578125,330.2684631347656,-0.0012176894815638661,-5.577945232391357,0.054962530732154846,-0.009613036178052425,4.929290771484375,-0.46399053931236267,0.0001679468114161864,4.95108016079507,17.823888578862253,0.4890318810939789,0.012420224025845528,0.0,False,1,0.0,,,60.0,40.0,80.0,5.0
51.04921196354553,2086,270.9469909667969,330.2529296875,-0.0012287902645766735,-5.548831939697266,0.05416339635848999,-0.009368897415697575,4.9703474044799805,-0.4672068953514099,-0.0002716922608669847,4.992257573293015,17.972127263854855,0.49155062437057495,0.007250213995575905,0.0,False,1,0.0,,,60.0,40.0,80.0,5.0
51.0809205356054,2087,271.1053466796875,330.2384338378906,-0.001134414691478014,-5.506289005279541,0.053343772888183594,-0.013458251953125,5.010024070739746,-0.45669829845428467,0.0033861969131976366,5.0307977490187605,18.11087189646754,0.4923093914985657,0.016439126804471016,0.0,False,1,0.0,,,60.0,40.0,80.0,5.0
51.111553554888815,2088,271.259521484375,330.224609375,-0.0010631942423060536,-5.455173015594482,0.052626606076955795,-0.016845703125,5.0477118492126465,-0.4523785710334778,0.001833901391364634,5.067942841765913,18.24459423035729,0.4941267669200897,0.01614711619913578,0.0,False,1,0.0,,,60.0,40.0,80.0,5.0
51.144078185316175,2089,271.4239807128906,330.21002197265625,-0.0010293197119608521,-5.410311222076416,0.04960083216428757,-0.0183715783059597,5.0455522537231445,-0.4465155005455017,0.0008194923284463584,5.065271395379105,18.234977023364777,0.492094486951828,0.01599828712642193,0.0,False,1,0.0,,,60.0,40.0,80.0,5.0
51.17568835383281,2090,271.5823669433594,330.1962890625,-0.0010309219360351562,-5.350832939147949,0.03854275494813919,-0.01974487118422985,4.995956897735596,-0.4342764914035797,0.00021207332611083984,5.014796251094632,18.053266503940677,0.4914693236351013,0.02007574401795864,0.0,False,1,0.0,,,60.0,40.0,80.0,5.0
51.209659149404615,2091,271.7517395019531,330.18133544921875,-0.0010786056518554688,-5.303347587585449,0.02862532064318657,-0.014770506881177425,5.012214183807373,-0.4465272128582001,0.0004178714589215815,5.032064958920868,18.115433852115125,0.49322813749313354,0.003207823261618614,0.0,False,1,0.0,,,60.0,40.0,80.0,5.0
51.236572712194175,2092,271.88787841796875,330.1695251464844,-0.0010707854526117444,-5.273958683013916,0.03043532185256481,-0.016448974609375,5.077496528625488,-0.4389232099056244,0.00029358864412643015,5.096432543318123,18.347157155945244,0.49234849214553833,0.01837616227567196,0.0,False,1,0.0,,,60.0,40.0,80.0,5.0
51.26590040838346,2093,272.035400390625,330.1568298339844,-0.0010884857038035989,-5.197573661804199,0.024738943204283714,-0.014617919921875,4.99906587600708,-0.43337318301200867,-0.0003734969941433519,5.0178154696951935,18.0641356909027,0.4930691123008728,0.010776175186038017,0.0,False,1,0.0,,,60.0,40.0,80.0,5.0
51.29765402665362,2094,272.1950378417969,330.14312744140625,-0.0011081313714385033,-5.110415458679199,0.019664114341139793,-0.012969969771802425,5.013276100158691,-0.4332113265991211,-0.00040874004480428994,5.031958811137521,18.115051720095078,0.4927840232849121,0.008578864857554436,0.0,False,1,0.0,,,60.0,40.0,80.0,5.0
51.32610625727102,2095,272.3369140625,330.1307678222656,-0.0011307144304737449,-5.107363700866699,0.011829886585474014,-0.009979248046875,4.974547863006592,-0.43327486515045166,-0.00044540403177961707,4.993380993725528,17.9761715774119,0.492977112531662,0.0006986018270254135,0.0,False,1,0.0,,,60.0,40.0,80.0,5.0
51.35808494267985,2096,272.49822998046875,330.11651611328125,-0.0011604690225794911,-5.085512638092041,0.015470377169549465,-0.004852294921875,5.084377765655518,-0.45190128684043884,-6.249427678994834e-05,5.1044208330471506,18.375914998969744,0.49105918407440186,-0.00280173122882843,0.0,False,1,0.0,,,60.0,40.0,80.0,5.0
51.391065164934844,2097,272.666015625,330.10211181640625,-0.0011594771640375257,-5.049685478210449,0.018660075962543488,-0.009033202193677425,5.041338920593262,-0.43104419112205505,-4.568099757307209e-05,5.059732918749294,18.215038507497457,0.4917670786380768,0.015425784513354301,0.0,False,1,0.0,,,60.0,40.0,80.0,5.0
51.42330690799281,2098,272.8298034667969,330.088623046875,-0.0011601257137954235,-4.969363212585449,0.017000339925289154,-0.01568603329360485,5.038754940032959,-0.4157654047012329,0.00010378360457252711,5.055878976817381,18.20116431654257,0.4918583929538727,0.020038412883877754,0.0,False,1,0.0,,,60.0,40.0,80.0,5.0
51.45825559226796,2099,273.0069885253906,330.0746154785156,-0.0011595535324886441,-4.849641799926758,0.012792943976819515,-0.02276611514389515,5.018884658813477,-0.39761167764663696,0.00022468566021416336,5.034610045987463,18.12459616555487,0.4922739565372467,0.024353036656975746,0.0,False,1,0.0,,,60.0,40.0,80.0,5.0
51.49176792381331,2100,273.17657470703125,330.0619201660156,-0.0011563110165297985,-4.709291458129883,0.008954377844929695,-0.029418939724564552,5.018640041351318,-0.3792429268360138,0.00028124809614382684,5.032948752104516,18.11861550757626,0.4921538531780243,0.02846536971628666,0.0,False,1,0.0,,,60.0,40.0,80.0,5.0
51.52319777710363,2101,273.3358459472656,330.05047607421875,-0.0011489486787468195,-4.56552267074585,0.007711282931268215,-0.034942626953125,5.038029670715332,-0.3637879490852356,0.0002925157605204731,5.051146871797845,18.184128738472243,0.4939435124397278,0.02956145815551281,0.0,False,1,0.0,,,60.0,40.0,80.0,5.0
51.5534143014811,2102,273.48956298828125,330.0398864746094,-0.0011388397542759776,-4.423127174377441,0.008824603632092476,-0.0394897423684597,5.065846920013428,-0.34981775283813477,0.0002863168774638325,5.077910747461756,18.28047869086232,0.4926030933856964,0.030314898118376732,0.0,False,1,0.0,,,60.0,40.0,80.0,5.0
51.5838817297481,2103,273.64532470703125,330.0296325683594,-0.0011278914753347635,-4.27853536605835,0.011105886660516262,-0.042999267578125,5.089874267578125,-0.33673346042633057,0.0002410030283499509,5.1010008372090185,18.363603013952467,0.4929126501083374,0.030314898118376732,0.0,False,1,0.0,,,60.0,40.0,80.0,5.0
51.616274354513735,2104,273.81146240234375,330.01861572265625,-0.0011219787411391735,-4.152619361877441,0.012881736271083355,-0.0373840369284153,5.098700046539307,-0.34447240829467773,-3.623962356869015e-06,5.110323219197529,18.397163589111106,0.4929893910884857,0.010487938299775124,0.0,False,1,0.0,,,60.0,40.0,80.0,5.0
51.64654805837199,2105,273.96728515625,330.00823974609375,-0.0011240387102589011,-4.053498268127441,0.014650754630565643,-0.0327148400247097,5.128690719604492,-0.34379976987838745,-0.00018544674094300717,5.140201047966525,18.50472377267949,0.4942758083343506,0.011722838506102562,0.0,False,1,0.0,,,60.0,40.0,80.0,5.0
51.676121009048074,2106,274.1202392578125,329.9980773925781,-0.0011283493367955089,-3.9901745319366455,0.016877396032214165,-0.02920532412827015,5.19248628616333,-0.34565913677215576,-0.0002691936388146132,5.203978683977629,18.734323262319467,0.49370113015174866,0.009640542790293694,0.0,False,1,0.0,,,60.0,40.0,80.0,5.0
51.70455868495628,2107,274.2660827636719,329.9884948730469,-0.0011425780830904841,-3.8862929344177246,0.012164566665887833,-0.025848388671875,5.10947847366333,-0.3397480845451355,-0.0002847862197086215,5.120761575672532,18.434741672421115,0.4933165907859802,0.006222253665328026,0.0,False,1,0.0,,,60.0,40.0,80.0,5.0
51.735651455353945,2108,274.4263610839844,329.9779357910156,-0.0011516570812091231,-3.8078012466430664,0.012055283412337303,-0.022796630859375,5.148825168609619,-0.3410506248474121,-0.0002832841710187495,5.160108160287593,18.576389377035337,0.4938952922821045,0.0035372693091630936,0.0,False,1,0.0,,,60.0,40.0,80.0,5.0
51.76640675170347,2109,274.5860595703125,329.9672546386719,-0.0011569594498723745,-3.7555246353149414,0.014999094419181347,-0.01806640625,5.181337833404541,-0.34828054904937744,-0.00031562327058054507,5.193030058100323,18.694908209161163,0.4923197627067566,-0.004659788683056831,0.0,False,1,0.0,,,60.0,40.0,80.0,5.0
51.797342624049634,2110,274.7477111816406,329.9569396972656,-0.0011598968412727118,-3.6935744285583496,0.01846883073449135,-0.02166748046875,5.211193084716797,-0.33078333735466003,-0.0001428604155080393,5.221680859922478,18.798051095720922,0.4875427484512329,0.013786589726805687,0.0,False,1,0.0,,,60.0,40.0,80.0,5.0
51.82623898377642,2111,274.8995056152344,329.9475402832031,-0.0011570740025490522,-3.647463083267212,0.021269207820296288,-0.02410888858139515,5.276437282562256,-0.32858261466026306,5.702972430299269e-06,5.286658389900227,19.031970203640817,0.488595575094223,0.008340971544384956,0.0,False,1,0.0,,,60.0,40.0,80.0,5.0
51.854131418745965,2112,275.04498291015625,329.9387512207031,-0.0011614226968958974,-3.5523691177368164,0.017034491524100304,-0.0257568359375,5.190987586975098,-0.31506893038749695,6.255149492062628e-05,5.200540410662891,18.72194547838641,0.4876445233821869,0.011942477896809578,0.0,False,1,0.0,,,60.0,40.0,80.0,5.0
51.88636352447793,2113,275.2139587402344,329.9293212890625,-0.0011573409428820014,-3.433228015899658,0.016262680292129517,-0.03460693359375,5.225751876831055,-0.28852221369743347,0.00026284693740308285,5.233710711826617,18.84135856257582,0.4898906350135803,0.02814529277384281,0.0,False,1,0.0,,,60.0,40.0,80.0,5.0
51.91692434763536,2114,275.3752136230469,329.9210510253906,-0.0011435317574068904,-3.3068857192993164,0.018489321693778038,-0.041412353515625,5.266966342926025,-0.2731383144855499,0.0003863525344058871,5.274043908200219,18.98655806952079,0.49007976055145264,0.025547774508595467,0.0,False,1,0.0,,,60.0,40.0,80.0,5.0
51.947359814774245,2115,275.5370178222656,329.9131164550781,-0.0011278914753347635,-3.1819162368774414,0.022000038996338844,-0.0446777418255806,5.303645610809326,-0.2622208595275879,0.0003367900790181011,5.31012397761634,19.116446319418824,0.4895278215408325,0.023221546784043312,0.0,False,1,0.0,,,60.0,40.0,80.0,5.0
51.97912662429735,2116,275.7068786621094,329.9051513671875,-0.0011149597121402621,-3.0528573989868164,0.024896038696169853,-0.0462341345846653,5.327753067016602,-0.2507185935974121,0.0002475690853316337,5.333649090216821,19.201136724780557,0.49009501934051514,0.023221546784043312,0.0,False,1,0.0,,,60.0,40.0,80.0,5.0
52.01073999656364,2117,275.8767395019531,329.8974914550781,-0.0011071395128965378,-2.928040027618408,0.026678716763854027,-0.045623779296875,5.354114055633545,-0.2432510256767273,0.00012523174518719316,5.359636965122587,19.294693074441316,0.48823660612106323,0.019826622679829597,0.0,False,1,0.0,,,60.0,40.0,80.0,5.0
52.04317249311134,2118,276.0517578125,329.88970947265625,-0.0011049270397052169,-2.812866687774658,0.027471018955111504,-0.0422363318502903,5.373083591461182,-0.24073107540607452,-2.3365020751953125e-05,5.378473643334276,19.362505116003394,0.48708537220954895,0.013813624158501625,0.0,False,1,0.0,,,60.0,40.0,80.0,5.0
52.0825716922991,2119,276.2644348144531,329.8808898925781,-0.001111907884478569,-2.6630866527557373,0.02359147183597088,-0.0429077185690403,5.343358516693115,-0.22180438041687012,-2.9144286600057967e-05,5.34796011783356,19.25265642420082,0.4882185757160187,0.022768648341298103,0.0,False,1,0.0,,,60.0,40.0,80.0,5.0
52.11824683425948,2120,276.4566345214844,329.87335205078125,-0.0011186599731445312,-2.517822504043579,0.019042566418647766,-0.042388916015625,5.3518781661987305,-0.21198751032352448,-3.037452552234754e-05,5.356074925847328,19.28186973305038,0.4898882210254669,0.01841324009001255,0.0,False,1,0.0,,,60.0,40.0,80.0,5.0
52.148894167970866,2121,276.6224670410156,329.8674011230469,-0.001118621788918972,-2.384246826171875,0.019028905779123306,-0.0462646484375,5.400595188140869,-0.19228942692279816,5.4640768212266266e-05,5.404017358675139,19.4544624912305,0.48829230666160583,0.027436388656497,0.0,False,1,0.0,,,60.0,40.0,80.0,5.0
52.183387748431414,2122,276.8101501464844,329.8609313964844,-0.0011150359641760588,-2.251404285430908,0.020190037786960602,-0.0444030798971653,5.409667015075684,-0.18991531431674957,1.9760131181101315e-05,5.41299963430632,19.48679868350275,0.49017611145973206,0.014033714309334755,0.0,False,1,0.0,,,60.0,40.0,80.0,5.0
52.21340263588354,2123,276.9742431640625,329.8554992675781,-0.0011138916015625,-2.141632080078125,0.022129811346530914,-0.043426513671875,5.458754539489746,-0.18076416850090027,-6.106853106757626e-05,5.461746681304717,19.662288052696983,0.49240314960479736,0.017363673076033592,0.0,False,1,0.0,,,60.0,40.0,80.0,5.0
52.246266833972186,2124,277.1549987792969,329.84954833984375,-0.0011137389810755849,-2.044158935546875,0.024452075362205505,-0.0386962927877903,5.476141452789307,-0.18244345486164093,-0.00013990401930641383,5.479179760215243,19.725047136774876,0.4905581474304199,0.007011553272604942,0.0,False,1,0.0,,,60.0,40.0,80.0,5.0
52.27758052153513,2125,277.3280029296875,329.84393310546875,-0.0011182022280991077,-1.9636234045028687,0.02604351006448269,-0.03466796875,5.508955478668213,-0.1799943745136261,-0.00021626471425406635,5.51189518111289,19.842822652006404,0.4913026690483093,0.007011553272604942,0.0,False,1,0.0,,,60.0,40.0,80.0,5.0
52.308605750557035,2126,277.5003356933594,329.838623046875,-0.0011225127382203937,-1.8856507539749146,0.027757886797189713,-0.0340271033346653,5.540056228637695,-0.17103105783462524,-0.00018517016724217683,5.54269561436485,19.95370421171346,0.4904555678367615,0.011244451627135277,0.0,False,1,0.0,,,60.0,40.0,80.0,5.0
52.34176659723744,2127,277.6852722167969,329.83331298828125,-0.0011252212570980191,-1.7948909997940063,0.02833162248134613,-0.0354309044778347,5.552824974060059,-0.15887746214866638,-5.7182311138603836e-05,5.555097410828519,19.998350678982668,0.49184325337409973,0.014336341992020607,0.0,False,1,0.0,,,60.0,40.0,80.0,5.0
52.37122864415869,2128,277.85015869140625,329.82879638671875,-0.001126518240198493,-1.731719732284546,0.02823599986732006,-0.0348205529153347,5.61777400970459,-0.15513958036899567,-4.523277311818674e-05,5.6199157569802995,20.23169672512908,0.49220916628837585,0.010490959510207176,0.0,False,1,0.0,,,60.0,40.0,80.0,5.0
52.4024048964493,2129,278.02545166015625,329.82415771484375,-0.0011254119453951716,-1.6435240507125854,0.030250906944274902,-0.03350830078125,5.671991348266602,-0.15071186423301697,-6.50405854685232e-05,5.673993296177045,20.42637586623736,0.4921444058418274,0.009041247889399529,0.0,False,1,0.0,,,60.0,40.0,80.0,5.0
52.43207722110674,2130,278.1925354003906,329.8197937011719,-0.0011314392322674394,-1.5603028535842896,0.027730567380785942,-0.0301818810403347,5.5872039794921875,-0.1484018862247467,-0.00011829376308014616,5.589174486655593,20.121028151960136,0.4963570535182953,0.004831630736589432,0.0,False,1,0.0,,,60.0,40.0,80.0,5.0
52.463999084662646,2131,278.37274169921875,329.81500244140625,-0.0011386489495635033,-1.4954224824905396,0.026166453957557678,-0.025421142578125,5.623953342437744,-0.15142449736595154,-0.00019446849182713777,5.625991522757317,20.253569481926345,0.49709177017211914,-0.0008519589900970459,0.0,False,1,0.0,,,60.0,40.0,80.0,5.0
52.49471216602251,2132,278.5469970703125,329.8103332519531,-0.0011447524884715676,-1.448699951171875,0.026706038042902946,-0.022247314453125,5.660098552703857,-0.15062668919563293,-0.0002260637265862897,5.66210244316748,20.383568795402926,0.49709177017211914,-0.0008519589900970459,0.0,False,1,0.0,,,60.0,40.0,80.0,5.0
52.52429365133867,2133,278.7156066894531,329.80596923828125,-0.0011493300553411245,-1.4268798828125,0.027593962848186493,-0.02127075009047985,5.7207560539245605,-0.1469341516494751,-0.00016901016351766884,5.722642702633102,20.60151372947917,0.4966829717159271,0.0020381473004817963,0.0,False,1,0.0,,,60.0,40.0,80.0,5.0
52.552502238657326,2134,278.8753967285156,329.8020935058594,-0.0011597060365602374,-1.3541566133499146,0.022409848868846893,-0.02117920108139515,5.652371883392334,-0.14015454053878784,-0.00010337829007767141,5.654109232592249,20.354793237332096,0.494978129863739,0.0026369597762823105,0.0,False,1,0.0,,,60.0,40.0,80.0,5.0
52.58260242221877,2135,279.046875,329.79815673828125,-0.0011616515694186091,-1.29107666015625,0.021993208676576614,-0.023834228515625,5.697561740875244,-0.12846864759922028,9.489059266343247e-06,5.69900991265951,20.516435685574237,0.49453040957450867,0.008543862029910088,0.0,False,1,0.0,,,60.0,40.0,80.0,5.0
52.616492606233805,2136,279.2410583496094,329.7941589355469,-0.0011578368721529841,-1.218139886856079,0.02281966060400009,-0.027008056640625,5.7044196128845215,-0.1178964376449585,0.0001266002655029297,5.705637800097251,20.540296080350103,0.4960133731365204,0.008587395772337914,0.0,False,1,0.0,,,60.0,40.0,80.0,5.0
52.66074318019673,2137,279.495361328125,329.78955078125,-0.001150436350144446,-1.116485595703125,0.02297675423324108,-0.0313415564596653,5.777194499969482,-0.10100916773080826,0.00018446921603754163,5.778077463696052,20.801078869305787,0.4953395426273346,0.012412378564476967,0.0,False,1,0.0,,,60.0,40.0,80.0,5.0
52.69022350339219,2138,279.6639404296875,329.7868957519531,-0.001152801443822682,-1.0111998319625854,0.017184754833579063,-0.0327148400247097,5.679949760437012,-0.09152702242136002,0.0001701450237305835,5.680687150853418,20.450473743072305,0.4932374656200409,0.012412378564476967,0.0,False,1,0.0,,,60.0,40.0,80.0,5.0
52.71936443587765,2139,279.83135986328125,329.7852783203125,-0.0011456679785624146,-0.8988952040672302,0.016699811443686485,-0.0444946326315403,5.7681498527526855,-0.053694453090429306,0.00034876822610385716,5.768399772878331,20.766239182361993,0.4917345941066742,0.03741370141506195,0.0,False,1,0.0,,,60.0,40.0,80.0,5.0
52.75487706204876,2140,280.03570556640625,329.7837829589844,-0.0011292648268863559,-0.7323608994483948,0.017314529046416283,-0.04840087890625,5.801867485046387,-0.04414689913392067,0.0004056739853695035,5.802035455537393,20.887327639934615,0.4907771944999695,0.0198074858635664,0.0,False,1,0.0,,,60.0,40.0,80.0,5.0
52.787502178456634,2141,280.2248840332031,329.7830810546875,-0.001113624544814229,-0.5811461806297302,0.02094818837940693,-0.0529174730181694,5.841831684112549,-0.020038027316331863,0.00032481193193234503,5.8418660591922835,21.03071781309222,0.4913588762283325,0.028824975714087486,0.0,False,1,0.0,,,60.0,40.0,80.0,5.0
52.82322441926226,2142,280.43267822265625,329.7834167480469,-0.001098899869248271,-0.3916321098804474,0.022000038996338844,-0.0621337927877903,5.851057529449463,0.014392416924238205,0.0004023265792056918,5.851075244470784,21.06387088009482,0.49130603671073914,0.039382584393024445,0.0,False,1,0.0,,,60.0,40.0,80.0,5.0
52.854428722988814,2143,280.61505126953125,329.78448486328125,-0.0010835647117346525,-0.21331787109375,0.023871509358286858,-0.0662841796875,5.882945537567139,0.03302057087421417,0.00039234160794876516,5.883038221022698,21.178937595681713,0.4928421378135681,0.03321801871061325,0.0,False,1,0.0,,,60.0,40.0,80.0,5.0
52.89430393604562,2144,280.8482666015625,329.7867126464844,-0.0010737990960478783,0.016292352229356766,0.022027358412742615,-0.0685119554400444,5.883596897125244,0.05712149664759636,0.00022526740212924778,5.883874179822888,21.181947047362396,0.4901881515979767,0.035328157246112823,0.0,False,1,0.0,,,60.0,40.0,80.0,5.0
52.93406118033454,2145,281.0804138183594,329.78961181640625,-0.0010736846597865224,0.24811607599258423,0.0177858117967844,-0.06646728515625,5.876791477203369,0.07273904234170914,5.720138506148942e-05,5.8772416181473215,21.158069825330358,0.49092283844947815,0.02916639856994152,0.0,False,1,0.0,,,60.0,40.0,80.0,5.0
52.96766807464883,2146,281.2772521972656,329.7928466796875,-0.0010730362264439464,0.4491482377052307,0.017341848462820053,-0.0692443773150444,5.8950982093811035,0.09974246472120285,4.9505233619129285e-05,5.895941948490311,21.22539101456512,0.49076807498931885,0.03614530712366104,0.0,False,1,0.0,,,60.0,40.0,80.0,5.0
52.99733952386305,2147,281.4507141113281,329.7960510253906,-0.001076774555258453,0.6287214159965515,0.013407660648226738,-0.0662841647863388,5.805294513702393,0.10201994329690933,1.127243012888357e-05,5.806190873522887,20.902287144682393,0.4935169517993927,0.02345661260187626,0.0,False,1,0.0,,,60.0,40.0,80.0,5.0
53.03075599251315,2148,281.6468200683594,329.7999267578125,-0.0010809325613081455,0.7932549118995667,0.013475962914526463,-0.0611572228372097,5.847160339355469,0.1104341596364975,-0.00018561362230684608,5.84820312337034,21.053531244133225,0.4916154146194458,0.018701182678341866,0.0,False,1,0.0,,,60.0,40.0,80.0,5.0
53.07393546728417,2149,281.90167236328125,329.8056640625,-0.001084289513528347,0.9798252582550049,0.016836415976285934,-0.061096180230379105,5.934980392456055,0.13815490901470184,-0.00014618872955907136,5.936588166539248,21.371717399541293,0.4937021732330322,0.024989372119307518,0.0,False,1,0.0,,,60.0,40.0,80.0,5.0
53.10618554381654,2150,282.0927734375,329.8104248046875,-0.0010850524995476007,1.1204503774642944,0.019165510311722755,-0.059204090386629105,5.963128089904785,0.148244246840477,-0.00012705325207207352,5.96497049359637,21.473893776946934,0.4937743842601776,0.018703261390328407,0.0,False,1,0.0,,,60.0,40.0,80.0,5.0
53.1465375716798,2151,282.33306884765625,329.81640625,-0.0010913085425272584,1.2640177011489868,0.021207736805081367,-0.0495910570025444,5.947166442871094,0.14399369060993195,-0.00030100345611572266,5.9489093935569874,21.416073816805156,0.49430057406425476,0.0061530377715826035,0.0,False,1,0.0,,,60.0,40.0,80.0,5.0
53.184366322588176,2152,282.5590515136719,329.82275390625,-0.0011026763822883368,1.3957563638687134,0.02044275589287281,-0.050994861871004105,5.93044900894165,0.1688607931137085,-0.00019754409731831402,5.932852556244058,21.35826920247861,0.49419349431991577,0.0230886097997427,0.0,False,1,0.0,,,60.0,40.0,80.0,5.0
53.215846102219075,2153,282.7473449707031,329.8281555175781,-0.0011080551194027066,1.4980828762054443,0.020094415172934532,-0.046051025390625,5.972288131713867,0.1670733541250229,-0.00019080638594459742,5.974624596598182,21.508648547753456,0.4950399100780487,0.005267398431897163,0.0,False,1,0.0,,,60.0,40.0,80.0,5.0
53.255059375893325,2154,282.9823913574219,329.8348693847656,-0.0011214828118681908,1.5956441164016724,0.01796339638531208,-0.038848876953125,5.945409297943115,0.16884845495224,-0.0003023719764314592,5.947806453831278,21.412103233792603,0.4938514828681946,0.0047944094985723495,0.0,False,1,0.0,,,60.0,40.0,80.0,5.0
53.29675997747108,2155,283.23272705078125,329.84326171875,-0.0011281967163085938,1.7316910028457642,0.01776532083749771,-0.0468444786965847,6.036401748657227,0.2095097452402115,1.2016295841021929e-05,6.040036457231615,21.744131246033813,0.4923328161239624,0.024825701490044594,0.0,False,1,0.0,,,60.0,40.0,80.0,5.0
53.333473439794034,2156,283.4533996582031,329.85150146484375,-0.0011240767780691385,1.8784732818603516,0.016911547631025314,-0.050750732421875,6.045846462249756,0.2263641059398651,0.0001622295385459438,6.050082658929072,21.780297572144658,0.4945653975009918,0.02043280564248562,0.0,False,1,0.0,,,60.0,40.0,80.0,5.0
53.36492655752227,2157,283.643310546875,329.859130859375,-0.0011163329472765326,2.01157808303833,0.018653245642781258,-0.0532836876809597,6.075789451599121,0.24521395564079285,0.00017723560449667275,6.080735759397593,21.890648733831334,0.49355366826057434,0.022556116804480553,0.0,False,1,0.0,,,60.0,40.0,80.0,5.0
53.39406142896041,2158,283.8191833496094,329.86669921875,-0.001113624544814229,2.150724172592163,0.016590528190135956,-0.0549621507525444,5.997427940368652,0.255150705575943,0.0001874923618743196,6.002852973180658,21.610270703450368,0.49401456117630005,0.024145228788256645,0.0,False,1,0.0,,,60.0,40.0,80.0,5.0
53.42573123937473,2159,284.0110778808594,329.8752136230469,-0.0011090087937191129,2.282644748687744,0.017218906432390213,-0.0532836876809597,6.04594612121582,0.26544150710105896,6.83546022628434e-05,6.051770294633551,21.786373060680784,0.4936752915382385,0.01613585092127323,0.0,False,1,0.0,,,60.0,40.0,80.0,5.0
53.45678993826732,2160,284.20025634765625,329.8839111328125,-0.0011048507876694202,2.3979077339172363,0.019834868609905243,-0.052154529839754105,6.082376003265381,0.279108464717865,6.442069661716232e-06,6.088776509301127,21.91959543348406,0.49372008442878723,0.017270701006054878,0.0,False,1,0.0,,,60.0,40.0,80.0,5.0
53.48805905645713,2161,284.3917541503906,329.8930358886719,-0.0011017227079719305,2.5074620246887207,0.022635245695710182,-0.0515746995806694,6.111179828643799,0.29246675968170166,-2.3474693080061115e-05,6.118174213283946,22.025427167822205,0.4929519593715668,0.017270701006054878,0.0,False,1,0.0,,,60.0,40.0,80.0,5.0
53.526017335709184,2162,284.62451171875,329.9039001464844,-0.0011087799211964011,2.6010234355926514,0.021569736301898956,-0.040252685546875,6.08851432800293,0.2795693278312683,-0.0002717304159887135,6.094929516015621,21.941746257656234,0.49387893080711365,-0.0013392828404903412,0.0,False,1,0.0,,,60.0,40.0,80.0,5.0
53.557484885212034,2163,284.8175964355469,329.91351318359375,-0.001118621788918972,2.6977546215057373,0.02047690562903881,-0.0431518591940403,6.124659061431885,0.30833372473716736,-0.00018107891082763672,6.132415375476417,22.076695351715102,0.4947376251220703,0.02221437357366085,0.0,False,1,0.0,,,60.0,40.0,80.0,5.0
53.586220485623926,2164,284.99462890625,329.922607421875,-0.00111980433575809,2.769824266433716,0.021221397444605827,-0.044036865234375,6.1802496910095215,0.31798791885375977,-4.500388968153857e-05,6.188424885363446,22.278329587308406,0.4947676658630371,0.01248726062476635,0.0,False,1,0.0,,,60.0,40.0,80.0,5.0
53.61965374043211,2165,285.20068359375,329.93316650390625,-0.0011232375400140882,2.857602596282959,0.021043810993433,-0.03741455078125,6.202465057373047,0.31280070543289185,-0.00015035629621706903,6.210347582209868,22.35725129595553,0.4958443343639374,0.00015589594841003418,0.0,False,1,0.0,,,60.0,40.0,80.0,5.0
53.65099410107359,2166,285.3948669433594,329.9422607421875,-0.0011320876656100154,2.8797683715820312,0.022478152066469193,-0.02175903134047985,6.229178428649902,0.2861354649066925,-0.0004968499997630715,6.235746759378106,22.448688333761183,0.49602359533309937,-0.022596433758735657,0.0,False,1,0.0,,,60.0,40.0,80.0,5.0
53.68393472349271,2167,285.59967041015625,329.95159912109375,-0.0011515808291733265,2.872638463973999,0.02335241623222828,-0.01296997256577015,6.246850490570068,0.28705474734306335,-0.0006211376166902483,6.25344240121548,22.51239264437573,0.49545976519584656,-0.010075125843286514,0.0,False,1,0.0,,,60.0,40.0,80.0,5.0
53.71058919047937,2168,285.7652587890625,329.9594421386719,-0.0011682510375976562,2.893730401992798,0.02087305672466755,-0.01400757022202015,6.187275409698486,0.2953844666481018,-0.00042798041249625385,6.194322332730497,22.29956039782979,0.4942590296268463,0.0013868194073438644,0.0,False,1,0.0,,,60.0,40.0,80.0,5.0
53.74360073497519,2169,285.9708251953125,329.96923828125,-0.0011789703276008368,2.9094018936157227,0.019520679488778114,-0.0130615234375,6.20806884765625,0.29505109786987305,-0.00021295546321198344,6.215076348118681,22.374274853227252,0.49357175827026367,-0.00688808411359787,0.0,False,1,0.0,,,60.0,40.0,80.0,5.0
53.782340274658054,2170,286.2120666503906,329.9808654785156,-0.0011895369971171021,2.9325344562530518,0.0158255472779274,-0.012847901321947575,6.1812744140625,0.29855474829673767,-0.00010756492702057585,6.1884802925471485,22.278529053169734,0.49516335129737854,-0.0033039581030607224,0.0,False,1,0.0,,,60.0,40.0,80.0,5.0
53.839367469307035,2171,286.56610107421875,329.99932861328125,-0.0011923599522560835,3.04685640335083,0.00898852851241827,-0.02386474795639515,6.16965913772583,0.3284570276737213,0.000240125649725087,6.178396066327605,22.24222583877938,0.49489423632621765,0.010584166273474693,0.0,False,1,0.0,,,60.0,40.0,80.0,5.0
53.86912311753258,2172,286.7508850097656,330.0092468261719,-0.0011860656086355448,3.0951805114746094,0.008093773387372494,-0.0240478515625,6.2331438064575195,0.33340632915496826,0.00022027968952897936,6.242054272499036,22.47139538099653,0.4955321252346039,0.001743348315358162,0.0,False,1,0.0,,,60.0,40.0,80.0,5.0
53.90393285220489,2173,286.9671936035156,330.02069091796875,-0.0011824797838926315,3.152620792388916,0.008285018615424633,-0.018341064453125,6.252756118774414,0.3264024257659912,6.761550594092114e-06,6.26126964955691,22.540570738404877,0.49624866247177124,-0.008281826972961426,0.0,False,1,0.0,,,60.0,40.0,80.0,5.0
53.940951810684055,2174,287.1976013183594,330.0320739746094,-0.0011895751813426614,3.153801918029785,0.008469434455037117,-0.005157470237463713,6.25807523727417,0.3036676049232483,-0.00032790182740427554,6.2654385159527015,22.555578657429727,0.4929170608520508,-0.02386595495045185,0.0,False,1,0.0,,,60.0,40.0,80.0,5.0
53.97082356503233,2175,287.3829345703125,330.040771484375,-0.001207656809128821,3.1474952697753906,0.004617207683622837,0.0027988192159682512,6.168634414672852,0.2904627025127411,-0.0004347610520198941,6.175469157274971,22.231688966189896,0.4929170608520508,-0.02386595495045185,0.0,False,1,0.0,,,60.0,40.0,80.0,5.0
54.00671684509143,2176,287.6061096191406,330.05108642578125,-0.0012144469656050205,3.1133670806884766,0.004016151186078787,0.006749571301043034,6.189476013183594,0.2866652309894562,-6.137847958598286e-05,6.196110899281955,22.305999237415037,0.49250033497810364,-0.020102042704820633,0.0,False,1,0.0,,,60.0,40.0,80.0,5.0
54.03836434101686,2177,287.8036804199219,330.0598449707031,-0.001209526089951396,3.062743902206421,0.006679924670606852,0.012084048241376877,6.235912799835205,0.2747868597507477,0.00011968612670898438,6.241964136372861,22.4710708909423,0.49562859535217285,-0.028011351823806763,0.0,False,1,0.0,,,60.0,40.0,80.0,5.0
54.068892556708306,2178,287.9954833984375,330.0679626464844,-0.0011969757033511996,2.991722345352173,0.011556679382920265,0.01689472794532776,6.278666973114014,0.2662839889526367,0.00023272990074474365,6.284311113893744,22.62352001001748,0.49678662419319153,-0.028011351823806763,0.0,False,1,0.0,,,60.0,40.0,80.0,5.0
54.10870017437264,2179,288.24609375,330.0793762207031,-0.0011926268925890326,2.951498508453369,0.01289539597928524,0.005013812333345413,6.2445549964904785,0.2917333245277405,-0.00011482238187454641,6.251365886749742,22.50491719229907,0.4963136911392212,-0.00014674663543701172,0.0,False,1,0.0,,,60.0,40.0,80.0,5.0
54.14935379428789,2180,288.5024108886719,330.0909423828125,-0.001197547884657979,2.9152112007141113,0.014398038387298584,0.006577677559107542,6.336678981781006,0.28152111172676086,-9.502410830464214e-05,6.342929501698928,22.834546206116144,0.4896766245365143,-0.018799657002091408,0.0,False,1,0.0,,,60.0,40.0,80.0,5.0
54.17786499066278,2181,288.68206787109375,330.0986633300781,-0.0011997222900390625,2.8953397274017334,0.012547057121992111,0.009935284964740276,6.268472194671631,0.27148061990737915,5.5427550250897184e-05,6.274348204031147,22.587653534512132,0.4938522279262543,-0.021071115508675575,0.0,False,1,0.0,,,60.0,40.0,80.0,5.0
54.21059350995347,2182,288.8889465332031,330.10797119140625,-0.0011983489384874701,2.882589817047119,0.01302517019212246,0.004806910641491413,6.305607795715332,0.2873666286468506,-4.08554078603629e-05,6.312152505628725,22.72374902026341,0.4971620738506317,-0.0038044285029172897,0.0,False,1,0.0,,,60.0,40.0,80.0,5.0
54.239895151462406,2183,289.07489013671875,330.1163635253906,-0.0011993789812549949,2.8567864894866943,0.014889811165630817,0.0028438400477170944,6.364469051361084,0.2877129018306732,-0.00013004303036723286,6.37096892446699,22.935488128081165,0.4957955777645111,-0.010833059437572956,0.0,False,1,0.0,,,60.0,40.0,80.0,5.0
54.26951280934736,2184,289.2616271972656,330.12506103515625,-0.0012098312145099044,2.8883092403411865,0.009978906251490116,-0.0010681151179596782,6.279046058654785,0.2929181456565857,-0.00015476226690225303,6.285874678253969,22.62914884171429,0.49557581543922424,-0.0018157381564378738,0.0,False,1,0.0,,,60.0,40.0,80.0,5.0
54.29734612768516,2185,289.4375915527344,330.1333923339844,-0.0012117003789171576,2.8949782848358154,0.009514452889561653,-0.0039062497671693563,6.346717834472656,0.3003235459327698,-3.5095213206659537e-06,6.353819442088926,22.873749991520135,0.49687659740448,-0.003450574353337288,0.0,False,1,0.0,,,60.0,40.0,80.0,5.0
54.32864589383826,2186,289.63616943359375,330.1428527832031,-0.0012075041886419058,2.91935133934021,0.011741094291210175,-0.005249022971838713,6.382726192474365,0.30382803082466125,6.552696140715852e-05,6.3899534524679344,23.003832428884564,0.4982587993144989,-0.005792353302240372,0.0,False,1,0.0,,,60.0,40.0,80.0,5.0
54.361579248216,2187,289.84625244140625,330.1533508300781,-0.0011988066835328937,2.951817750930786,0.01536792516708374,-0.011566162109375,6.408731460571289,0.3232724368572235,0.00018197059398517013,6.416879618261598,23.100766625741755,0.49897298216819763,0.006375441327691078,0.0,False,1,0.0,,,60.0,40.0,80.0,5.0
54.393731819000095,2188,290.0520324707031,330.1640625,-0.0011864471016451716,2.9998714923858643,0.01823660358786583,-0.01727294921875,6.4326605796813965,0.33623430132865906,0.0002996349357999861,6.4414420534968775,23.18919139258876,0.4971877932548523,0.006375441327691078,0.0,False,1,0.0,,,60.0,40.0,80.0,5.0
54.42271394236013,2189,290.2374267578125,330.1739501953125,-0.0011803817469626665,3.061744451522827,0.016371961683034897,-0.019378662109375,6.360073089599609,0.3369327783584595,0.00028429983649402857,6.368991559345001,22.928369613642005,0.4994780719280243,0.003987066447734833,0.0,False,1,0.0,,,60.0,40.0,80.0,5.0
54.45312680257484,2190,290.4325256347656,330.1835021972656,-0.0011773300357162952,3.070127487182617,0.016768112778663635,-0.006866454612463713,6.411995887756348,0.30787402391433716,-0.0001169490788015537,6.419382968236325,23.10977868565077,0.4979397654533386,-0.02703317068517208,0.0,False,1,0.0,,,60.0,40.0,80.0,5.0
54.48874891130254,2191,290.6618957519531,330.194091796875,-0.0011880111414939165,3.0296382904052734,0.017355509102344513,0.00458801444619894,6.409302711486816,0.29623889923095703,-0.00026602743309922516,6.416145166972177,23.09812260109984,0.49881187081336975,-0.020843572914600372,0.0,False,1,0.0,,,60.0,40.0,80.0,5.0
54.53458120627329,2192,290.9572448730469,330.207763671875,-0.0011941527482122183,2.97869610786438,0.016412943601608276,0.004856946412473917,6.468165874481201,0.30282115936279297,-8.351325959665701e-05,6.475250608380764,23.31090219017075,0.49737995862960815,-0.010803566314280033,0.0,False,1,0.0,,,60.0,40.0,80.0,5.0
54.56325604347512,2193,291.1413269042969,330.2161560058594,-0.001201209961436689,2.972214460372925,0.011775245890021324,0.0077858492732048035,6.391939640045166,0.28919917345046997,1.665115269133821e-05,6.398478610121504,23.034522996437417,0.4983140826225281,-0.021313302218914032,0.0,False,1,0.0,,,60.0,40.0,80.0,5.0
54.596137433778495,2194,291.35302734375,330.2254638671875,-0.0011990356724709272,2.9341518878936768,0.010859999805688858,0.012204421684145927,6.425487995147705,0.2806188762187958,0.00015352248738054186,6.43161278009231,23.153806008332317,0.49758437275886536,-0.021670226007699966,0.0,False,1,0.0,,,60.0,40.0,80.0,5.0
54.64821468992159,2195,291.6895751953125,330.2401428222656,-0.0011917114024981856,2.8722152709960938,0.011884528212249279,0.011421910487115383,6.4427385330200195,0.28167974948883057,6.981849583098665e-05,6.448893183408116,23.21601546026922,0.49765822291374207,-0.014791070483624935,0.0,False,1,0.0,,,60.0,40.0,80.0,5.0
54.68088350398466,2196,291.9013366699219,330.2488708496094,-0.0011868667788803577,2.8153929710388184,0.01302517019212246,0.017257757484912872,6.46898889541626,0.26314619183540344,0.00016009330283850431,6.474338829017695,23.307619784463704,0.49734950065612793,-0.028499288484454155,0.0,False,1,0.0,,,60.0,40.0,80.0,5.0
54.71336698113009,2197,292.1126403808594,330.2569885253906,-0.0011767959222197533,2.735525131225586,0.014841999858617783,0.02332165278494358,6.491738796234131,0.25000932812690735,0.000280275329714641,6.496551188225649,23.387584277612337,0.49734950065612793,-0.028499288484454155,0.0,False,1,0.0,,,60.0,40.0,80.0,5.0
54.750216021668166,2198,292.3526916503906,330.26507568359375,-0.0011630249209702015,2.601803779602051,0.014363886788487434,0.03615258261561394,6.480161190032959,0.21575522422790527,0.0004899310879409313,6.483751969779803,23.34150709120729,0.4994903802871704,-0.044135838747024536,0.0,False,1,0.0,,,60.0,40.0,80.0,5.0
54.77861443860456,2199,292.537841796875,330.2705383300781,-0.0011479186359792948,2.4651284217834473,0.01401554699987173,0.04425846040248871,6.538805961608887,0.1955760270357132,0.0005475044017657638,6.541730175242943,23.550228630874596,0.49890628457069397,-0.04312308132648468,0.0,False,1,0.0,,,60.0,40.0,80.0,5.0
54.806836403440684,2200,292.7209777832031,330.2755126953125,-0.001138610765337944,2.3565597534179688,0.009562264196574688,0.04987722262740135,6.46944522857666,0.1758432388305664,0.0005394268082454801,6.471834569979135,23.298604451924888,0.4990648627281189,-0.0464705228805542,0.0,False,1,0.0,,,60.0,40.0,80.0,5.0
54.84344198880717,2201,292.9589538574219,330.28173828125,-0.001127548166550696,2.214348793029785,0.0072126793675124645,0.04735446721315384,6.472670078277588,0.17330323159694672,0.00024941444280557334,6.4749897308427835,23.30996303103402,0.49864766001701355,-0.03012920543551445,0.0,False,1,0.0,,,60.0,40.0,80.0,5.0
54.87720087496564,2202,293.1788330078125,330.28717041015625,-0.0011235045967623591,2.093065023422241,0.007328792475163937,0.046383779495954514,6.496958255767822,0.16034947335720062,6.702422979287803e-05,6.498936723440831,23.396172204386993,0.4984661638736725,-0.034230172634124756,0.0,False,1,0.0,,,60.0,40.0,80.0,5.0
54.907093476038426,2203,293.37408447265625,330.2913513183594,-0.0011196898994967341,1.9529404640197754,0.008933886885643005,0.049966827034950256,6.550685405731201,0.1397622674703598,6.978988676564768e-05,6.552176186667971,23.587834272004695,0.4982679784297943,-0.04110510274767876,0.0,False,1,0.0,,,60.0,40.0,80.0,5.0
54.94077906338498,2204,293.5943298339844,330.2962951660156,-0.0011170959332957864,1.851833701133728,0.010607283562421799,0.04283914342522621,6.576421737670898,0.15062448382377625,-0.0001090240475605242,6.578146442480871,23.681327192931136,0.49970555305480957,-0.018149886280298233,0.0,False,1,0.0,,,60.0,40.0,80.0,5.0
54.982160347979516,2205,293.865966796875,330.30218505859375,-0.0011241149622946978,1.7539478540420532,0.012697321362793446,0.037533827126026154,6.555533409118652,0.14151456952095032,-0.00025431631365790963,6.557060676563418,23.605418435628305,0.4991261959075928,-0.024622133001685143,0.0,False,1,0.0,,,60.0,40.0,80.0,5.0
55.01135732373223,2206,294.0583801269531,330.30609130859375,-0.0011283111525699496,1.6604136228561401,0.014664415270090103,0.03642115369439125,6.608065605163574,0.13407441973686218,-0.00022246359731070697,6.609425621161317,23.79393223618074,0.49916887283325195,-0.024448078125715256,0.0,False,1,0.0,,,60.0,40.0,80.0,5.0
55.03953192895278,2207,294.2431640625,330.3094177246094,-0.0011372757144272327,1.6009550094604492,0.010989774018526077,0.03961021080613136,6.5423479080200195,0.11498834937810898,-7.113456376828253e-05,6.543358348365673,23.55609005411642,0.498789519071579,-0.036381080746650696,0.0,False,1,0.0,,,60.0,40.0,80.0,5.0
55.06896846881136,2208,294.43670654296875,330.3125,-0.001138610765337944,1.5008684396743774,0.010258943773806095,0.04030929133296013,6.595367431640625,0.10865356028079987,-6.284713435888989e-06,6.596262362470663,23.746544504894388,0.49888530373573303,-0.026389945298433304,0.0,False,1,0.0,,,60.0,40.0,80.0,5.0
55.09867122163996,2209,294.6309814453125,330.3157653808594,-0.0011468505254015326,1.458554744720459,0.0050406791269779205,0.03565678372979164,6.510851860046387,0.11004842817783356,-8.117675315588713e-05,6.511781830390479,23.442414589405725,0.5006225109100342,-0.018537070602178574,0.0,False,1,0.0,,,60.0,40.0,80.0,5.0
55.13043269654736,2210,294.8393859863281,330.3195495605469,-0.0011539839906618,1.4238110780715942,0.0052865659818053246,0.026824794709682465,6.557259559631348,0.12155935168266296,-0.00030429838807322085,6.558386211634362,23.610190361883703,0.49996793270111084,-0.008698569610714912,0.0,False,1,0.0,,,60.0,40.0,80.0,5.0
55.15710865473375,2211,295.0153503417969,330.3232421875,-0.0011613082606345415,1.406063199043274,0.008674339391291142,0.015239998698234558,6.616523265838623,0.14100363850593567,-0.0005329131963662803,6.618025569416621,23.824892049899834,0.4975687563419342,0.003861214965581894,0.0,False,1,0.0,,,60.0,40.0,80.0,5.0
55.18529366096482,2212,295.20068359375,330.32733154296875,-0.0011799621861428022,1.4312726259231567,0.007267320994287729,0.00873770285397768,6.552083492279053,0.14083252847194672,-0.0005825423868373036,6.553596892564197,23.59294881323111,0.49810048937797546,-0.00541788712143898,0.0,False,1,0.0,,,60.0,40.0,80.0,5.0
55.219916680362076,2213,295.4289855957031,330.33233642578125,-0.0011964035220444202,1.448436975479126,0.007793245371431112,0.005333203822374344,6.573709011077881,0.143240824341774,-0.00043551443377509713,6.575269445867407,23.670970005122665,0.4993603527545929,-0.005565593019127846,0.0,False,1,0.0,,,60.0,40.0,80.0,5.0
55.246936346869916,2214,295.60772705078125,330.3362121582031,-0.0012029266217723489,1.4433163404464722,0.009944754652678967,0.004227785859256983,6.635016441345215,0.14403438568115234,-0.00030455589876510203,6.636579629141367,23.89168666490892,0.49993354082107544,-0.007194770500063896,0.0,False,1,0.0,,,60.0,40.0,80.0,5.0
55.27378888754174,2215,295.7849426269531,330.3401184082031,-0.001210708636790514,1.4670122861862183,0.008776792325079441,0.003364069387316704,6.585887432098389,0.14368750154972076,-0.00020215034601278603,6.587454698685819,23.714836915268947,0.49993354082107544,-0.007194770500063896,0.0,False,1,0.0,,,60.0,40.0,80.0,5.0
55.30427452689037,2216,295.98712158203125,330.3441467285156,-0.0012106322683393955,1.4545053243637085,0.010989774018526077,0.00809862744063139,6.63076114654541,0.12970340251922607,4.444122168933973e-06,6.632029580390984,23.875306489407546,0.5001167058944702,-0.01969303749501705,0.0,False,1,0.0,,,60.0,40.0,80.0,5.0
55.338920613285154,2217,296.21783447265625,330.34735107421875,-0.0011977385729551315,1.3613094091415405,0.013523774221539497,0.026515869423747063,6.635457515716553,0.08587739616632462,0.0004905319074168801,6.636013231652959,23.889647633950652,0.49348652362823486,-0.04547518864274025,0.0,False,1,0.0,,,60.0,40.0,80.0,5.0
55.369974785950035,2218,296.4251708984375,330.3497619628906,-0.0011766814859583974,1.2621138095855713,0.01542939618229866,0.03167879953980446,6.669689178466797,0.08224962651729584,0.0005699729663319886,6.670196328691421,24.01270678328912,0.49507609009742737,-0.025752590969204903,0.0,False,1,0.0,,,60.0,40.0,80.0,5.0
55.399353278335184,2219,296.6219177246094,330.3511962890625,-0.0011581421131268144,1.1216157674789429,0.017130114138126373,0.0417616069316864,6.713676452636719,0.04913358762860298,0.0005764961242675781,6.713856265401412,24.16988255544508,0.4906719923019409,-0.0464533194899559,0.0,False,1,0.0,,,60.0,40.0,80.0,5.0
55.42750986246392,2220,296.8095397949219,330.35260009765625,-0.0011479950044304132,1.0393710136413574,0.01294320821762085,0.04086615890264511,6.6477813720703125,0.0529964379966259,0.00047304152394644916,6.647992630640745,23.932773470306685,0.4925384819507599,-0.023182015866041183,0.0,False,1,0.0,,,60.0,40.0,80.0,5.0
55.46133857546374,2221,297.0354309082031,330.3542175292969,-0.0011420059017837048,0.9423673152923584,0.011344943195581436,0.03705212101340294,6.66253662109375,0.04909592121839523,0.00011577605619095266,6.662717512419366,23.98578304470972,0.4969606101512909,-0.023182015866041183,0.0,False,1,0.0,,,60.0,40.0,80.0,5.0
55.49351240275428,2222,297.2508850097656,330.356201171875,-0.0011433410691097379,0.8888579607009888,0.012000641785562038,0.026080213487148285,6.686025619506836,0.06647805124521255,-0.00021106719214003533,6.686356104826342,24.07088197737483,0.49845215678215027,-0.004777282476425171,0.0,False,1,0.0,,,60.0,40.0,80.0,5.0
55.53039538441226,2223,297.49822998046875,330.35833740234375,-0.001155586214736104,0.838348925113678,0.011502037756145,0.022417500615119934,6.672333717346191,0.05660824477672577,-0.00029857634217478335,6.672573852581879,24.021265869294766,0.4997962713241577,-0.017707647755742073,0.0,False,1,0.0,,,60.0,40.0,80.0,5.0
